,name,lat,lng
0,"A 2 400001 M.R.A. Bmc Colony,M.R.A. Road,Fort",18.9345189,72.8371021
1,"A 3 400001 Dcb Building,M.R.A. Marg,Near Crowfard Market,Fort",18.9483221,72.8356609
2,"A 4 400005 Ganeshmurthi Nagar Part No 2,Captain Prakash Pethe Marg,Colaba Congested Area",18.9179494,72.8250608
3,"A 5 400005 Ganeshmurthi Nagar Part No 1,3,Captain Prakash Pethe Marg,Colaba Congested Area",18.9180166,72.8251581
4,"A 6 400005 Shivshakti Nagar,Free Press Journal Road,Nariman Point,Colaba Congested Area",18.924775,72.8251447
5,"A 7 400005 Sunder Nagar,Indumati Sakrikar Marg,Near Colaba Market,Colaba Congested Area",18.9197182,72.8298531
6,"A 8 400005 Geeta Nagar,Dr Homi Bhabha Road,Near Navy Nagar,Colaba Congested Area",18.9072667,72.8094898
7,"A 9 400005 Ambedkar Nagar,Capt. Prakash Pethe Marg,Colaba Congested Area",18.9134577,72.8208046
8,"A 10 400005 Azad Nagari,Lala Nigam Road,Colaba Congested Area",18.9171013,72.8288065
9,"A 11 400005 Maker Tower,G.D.Somani Road,Colaba",18.916204,72.817656
10,"A 12 400005 Machchimar Nagar No.5,Capt. Prakash Pethe Marg,Colaba Congested Area",18.9174726,72.8248492
11,"A 13 400005 Darya Nagari,Near Jamshedji Bunder,Colaba Congested Area",18.9155998,72.8302691
12,"A 14 400005 Srpf Police Quarters,,Colaba",18.9103689,72.8197581
13,"A 15 400005 Chotu Terrace,Near Colab Fire Station,Colaba",18.9154742,72.8260795
14,"A 16 400020 Bell Heaven Building Servant Quarters,Near Bombay Hospital,New Marine Lines",18.9397534,72.8284255
15,"B 17 400003 Noor Hospital Building,Mohd Ali Road,Opp. Baig Mohd Playground,Mandvi",18.9540453,72.833408
16,"B 18 400003 Noble Tower,Zakeria Masjid Street,Near Hotel Hayat,Mandvi",18.9554088,72.8347697
17,"B 19 400003 Parveen Manzil,Dontaad Street,Near Zakeria Masjid,Pydhonie",18.9541012,72.8346721
18,"B 20 400003 Hazira Mansion,Samuel Street,Opp. Hotel Al-Rehmaniya,Masjid Railway Station (W)",18.9518278,72.8382898
19,"B 21 400003 Parsi Chawl,Nagdevi Street,Opp. Crawford Market, Near Vip Bags Showroom,Crowford Market Congested Area",18.9473731,72.8337761
20,"B 22 400003 Sami Chawl,Tantanpura Street,Opp. Dar-Ul Madinah Islamic School,Dongri Congested Area",18.9531926,72.8353005
21,"B 23 400003 Vanjara Building,Memonwada Road,Near Minara Masjid,Dongri",18.9551515,72.8334772
22,"B 24 400003 Latif House,Kambekar Street,Mandvi",18.9554189,72.8338458
23,"B 25 400003 Chase Building,Sarang Street,Near Crowford Market,Crowford Market",18.9477997,72.8338972
24,"B 26 400003 Anl Compound,Behind Ashoka Hotel,Masjid Railway Station (W)",18.9518278,72.8382898
25,"B 27 400003 Chunawala Building (T-Plot Building),Mohd. Ali Road,Near Mandvi Post Office,Mandvi",18.9568126,72.8323813
26,"B 28 400003 Hutment,Poona Street,Near Kochar Carries,Chinchbunder Congested Area",18.9554983,72.8400939
27,"B 29 400003 Barak Manzil,Kambekar Street,Dongri",18.9554189,72.8338458
28,"B 30 400003 Baria Building,Pinjara Street,Opp. Sadanand Hotel,Carnac Road",18.9478981,72.833963
29,"B 31 400009 K J Gandhi Warehouse,Masjid Siding Road,Near Shankar Vilas Hindu Hotel,Masjid Railway Station (E)",18.9501833,72.838921
30,"B 32 400009 Noor Building,Nishanpada Road,Near Noor Masjid,Umerkhadi",18.9557603,72.8356668
31,"B 33 400009 Police Quarters,Imamwada Road,Near Memonwada Fire Station,Bhendi Bazar",18.9579624,72.8327018
32,"B 34 400009 Bismillah Building,Zakeria Masjid Street,Khadak,Dongri",18.9549518,72.8344932
33,"B 35 400009 Sydenham B.I.T. Chawl,Ibrahim Rahimtula Road,Near Hp Petrol Pump,Umerkhadi",18.960154,72.8391317
34,"B 36 400009 City Arcade,Samant Bhai Nanji Marg,Near Kgn Homoeopathic Health Clinic,Dongri",18.9597509,72.837815
35,"B 37 400009 Rehmatbhai Habib House,Navroji Hill Road No.2,Behind Habib Hospital,Dongri",18.9597935,72.8368875
36,"B 38 400009 Aga Khan Building,Tatanpura Street,Opp Dar-Ul-Madinah Islamic English Medium School,Dongri",18.9597509,72.837815
37,"B 39 400009 Mcgm B Ward Labour Staff Quarters,Babula Tank Cross Lane,Mcgm B Ward,Umerkhadi",18.9614551,72.8333212
38,"B 40 400009 Laxminarayan Chs,Imamwada Rd,Near Mughal Masjid,Umerkhadi",18.9593674,72.8333531
39,"B 41 400009 Jolly Chamber Building,Navroji Hill Road No. 1,Near Cafe Islam,Dongri",18.9589707,72.8377555
40,"B 42 400009 Police Line Building,Sardar Vallabhbhai Patel Road,Opp. Memonwada Fire Station,Bhendi Bazar",18.9579624,72.8327018
41,"B 43 400009 Dastagir Masion,Nishanpada Cross Lane,Near Bombay Central Dairy,Dongri",18.9563883,72.835781
42,"B 44 400009 Mandvi Police Qrts.,Mohd Ali Road,Opp. Mandvi Post Office,Bhendi Bazar",18.9568126,72.8323813
43,"B 45 400009 Sauda Heights,Dr. Meisheri Road,Opp. Sandhurst Road Railway Station,Dongri",18.9607549,72.8384027
44,"B 46 400009 Mimson House,Lokmanya Tilak Marg,Near Airtel Gallery,Crawford Market",18.9473731,72.8337761
45,"B 47 400009 Ismail Habib Building,M. A. Sarang Marg (Tandel Street),Near Baba Dargah,Dongri",18.9568956,72.8347627
46,"B 48 400009 Tawakkal Masion,Nishanpada Road,Dongri",18.9587993,72.8361776
47,"B 49 400009 Baig Mohd. Building,Ramchandra Bhatt Marg,Near J.J. Hospital Gate No. 6,Dongri",18.9620286,72.8345422
48,"B 50 400009 Master Building,M. A. Sarang Marg (Tandel Street),Near Amber Sweets,Dongri",18.9558068,72.8365931
49,"B 51 400009 Wadi Bunder Police Line,Sardar Vallabhbhai Patel Road,Near Mandvi Fire Station,Dongri",18.9582963,72.838941
50,"B 52 400009 Bhaucha Dhakka,,Mbpt Area Congested Area",18.9571313,72.8494621
51,"B 53 400009 Habib Building,Samuel Street,Dongri",18.9597888,72.8369391
52,"B 54 400009 Zulekha Manzil,Samuel Street,Dongri",18.9563305,72.8366904
53,"B 55 400009 Aqsa Mansion,Samuel Street,Dongri",18.9563305,72.8366904
54,"B 56 400009 Masjid Chawl,Sardar Vallabhbhai Patel Road,Dongri Congested Area",18.9583842,72.837807
55,"B 57 400009 Bagdad Palace,Nishanpada Road,Opp. Juma Masjid,Dongri",33.315241,44.3660671
56,"B 58 400009 Haroon Mazil,Mohammed Ali Road,Opp. Shalimar Hotel,Umerkhadi",18.9580734,72.8322506
57,"B 59 400009 Mawani Mansion,Samantbhai Nanji Marg,Charnull Junction,Dongri",18.9588938,72.8365797
58,"B 60 400009 Janmohammad Building,Tandel Street,Near Hajji Abdurrehman Shah Baba Dargah,Dongri",18.9568145,72.8350911
59,"B 61 400009 Liyakat Manzil,Nishanpada Cross Lane,Near Rehmaniya Castle,Mandvi",18.9565769,72.8353393
60,"B 62 400009 Mukadam Building,Charnull Junction,Dongri",18.9597509,72.837815
61,"B 63 400009 Transit Camp,Imamwada Road,Dongri",18.9593062,72.8331724
62,"B 64 400009 Baghdad Mansion,Navroji Hill Road No. 5,Dongri",18.9607807,72.8379094
63,"B 65 400009 Salim Mansion,Ibrahim Mohd. Merchant Road,Near City Heights,Dongri",18.952185,72.8275376
64,"B 66 400009 Allu Paru Building,Navroji Hill Road No. 19,Dongri",18.9593794,72.8373546
65,"B 67 400009 Mohammadi House,Mohammed Ali Road,Pydhonie",18.9566733,72.8327624
66,"B 68 400009 Bautwala Building,Zakeria Masjid Street,Dongri",18.9549518,72.8344932
67,"C 69 400002 Siddhesh Apartment,2Nd Khattargalli,Nazvirns Holy,Marine Lines",18.9530461,72.8256707
68,"C 70 400002 Panchali House,Sadguru Baba Kadam Lane,Dr. M.B Welkar Street,Chirabazar,Marinelines Congested Area",18.9479789,72.8272504
69,"C 71 400002 1St Floor, Ajanta Guest House Building,Dadi Sheth Agyari Lane,2Nd Fanaswadi, Chira Bazar, Kalbadevi Congested Area",18.9496789,72.8264147
70,"C 72 400003 5Th Floor, Vivek Building,Kalbadevi Road,Badamwadi,Badamwadi Congested Area",18.949316,72.829243
71,"C 73 400003 Dhobi Bldg,3Rd Kumbharwada,Kumbharwada,Charni Rd Congested Area",18.9597997,72.827361
72,"C 74 400003 Bldg No 46,1St Bhoiwada,Bhuleshwar,Charni Road",18.9531261,72.8301779
73,"C 75 400003 Bldg No 78,Bada Jagdish Mandir,Bhuleshwar,Charni Road",18.9531926,72.8353005
74,"C 76 400003 Mahavir Mansion,Gulalwadi,Gulalwadi,Charni Road Congested Area",18.9543643,72.8303845
75,"C 77 400003 Khemakaer Chawl,Fanaswadi,Fanaswadi,Charni Road Congested Area",18.9516918,72.8252228
76,"C 78 400003 Bldg No 68,Kazi Street,Mandavi Post Office,Charni Road",18.9568126,72.8323813
77,"C 79 400003 Shriji Bhavan,Gazdar Street,Gazdar Street,Charni Road",18.9482867,72.8238612
78,"C 80 400003 Madan House,Dr M B Velkar Street,Waka Muhalla,Marine Lines",18.9475518,72.8276907
79,"C 81 400003 Mithawala Building,Iind Cross Lane,Ghoughari Mohalla,Marine Lines",18.9531926,72.8353005
80,"C 82 400003 Sighriya Bldg,Ganesh Baug,Near By Vijay Dairy,Charni Road Congested Area",18.9531926,72.8353005
81,"C 83 400003 Karnatak Mahal,Zaobawadi,Charni Road Congested Area",18.9517545,72.8183688
82,"C 84 400003 Jamundas Bldg,2 Taki,Charni Road Congested Area",18.9517545,72.8183688
83,"C 85 400003 Haji Kasam Bldg.,,Charni Road Congested Area",18.9574184,72.8294613
84,"C 86 400003 Ganesh Bhuvan,2Nd Kumbharwada,Charni Road Congested Area",18.9517545,72.8183688
85,"C 87 400003 Vyas Bldg,3Rd Kumbharwada,Dr.Mahimtura Marg,Charni Road Congested Area",18.9603221,72.827236
86,"C 88 400003 Pravin House,4Th Kumbharwada,Charni Road Congested Area",18.9517545,72.8183688
87,"C 89 400003 Chandramahal,1St Kumbharwada,Charni Road Congested Area",18.9517545,72.8183688
88,"C 90 400003 Rangwala Bldg,Isalampura Street,Girgaoan,Charni Road Congested Area",18.9517545,72.8183688
89,"C 91 400003 1St Floor,1St Sutargully,Cp Tank,Charni Road Congested Area",18.9517545,72.8183688
90,"C 92 400003 Tulsidas Jethalal Bldg,Girgaoan,Charni Road Congested Area",18.9531926,72.8353005
91,"C 93 400003 Glasswala Bldg,Bara Imam Road,Charni Road Congested Area",18.9517545,72.8183688
92,"C 94 400003 Masjid X Lane,Charni Road",18.9517545,72.8183688
93,"C 95 400003 Panchayatwadi,Bhuleshwar,Charni Road",18.9551592,72.8283292
94,"C 96 400003 Sant Sena Mharaj Marg, Near Galli Mandir,S.V.P.Road, Girgaon,Charni Road Congested Area",18.9579532,72.8197819
95,"C 97 400003 Dr Bldg,5Th Kumbharwada,Girgaon,Charni Road Congested Area",18.9585763,72.826388
96,"C 98 400003 Nagu Kamathi Chawl,Bhandarwada A, Cross Lane,Girgaon,Charni Road Congested Area",18.957197,72.8179968
97,"C 99 400003 Manaji Bldg,1St Bhandari Street, Near Goal Deol,Girgaon,Charni Road Congested Area",18.9581207,72.8280391
98,"C 100 400003 Vishwaheera Bldg,Sant Sena Mharaj Marg, Goldeol,Girgaon,Charni Road Congested Area",18.9600648,72.8277273
99,"C 101 400003 Kherwadi Bldg,Girgaon,Charni Road Congested Area",18.9517545,72.8183688
100,"C 102 400003 Noor Estate,Ali Noor Sreet, Opp. Null Bazar,Charni Road",18.9578557,72.8295767
101,"C 103 400003 Sumlight House,Ghoghari Mohalla,Near Pydhonie,Charni Road",18.9561679,72.8309579
102,"C 104 400003 Manimahal Bldg,C.P.Tank,Charni Road Congested Area",18.9517545,72.8183688
103,"C 105 400003 Tayyabi Bldg,2Nd Kumbharwada,Charni Road Congested Area",18.9517545,72.8183688
104,"C 106 400003 Dodiya House,4Th Kumbharwada,Charni Road Congested Area",18.9517545,72.8183688
105,"C 107 400003 Dwarkadas Mansion,Bapu Khote Street,Pydonie,Charni Road Congested Area",18.955336,72.8300593
106,"C 108 400003 Jamnabai Bldg,Bhandari Street,Kumbharwada,Charni Road Congested Area",18.9570625,72.8280765
107,"C 109 400003 Laxmi Bldg,Kumbharwada,Charni Road Congested Area",18.9600513,72.8283321
108,"C 110 400003 Bhuleshwar Road,Charni Road Congested Area",18.9517545,72.8183688
109,"C 111 400003 Manjoba Chs,Babu Genu Road,Dawa Bazar Congested Area",18.9478967,72.8311258
110,"C 112 400003 Masjid Building,Bhandari Street,Girgaon,Charni Road Congested Area",18.9581207,72.8280391
111,"C 113 400003 Somji Bldg,3Rd Kumbharwada,Girgaon,Charni Road Congested Area",18.9603221,72.827236
112,"C 114 400003 Subhadra Bldg,1St Sp Marg,Chirabazar,Charni Road Congested Area",18.9531926,72.8353005
113,"C 115 400003 Gani Castle Amar Street,Null Bazar,",18.9578557,72.8295767
114,"C 116 400003 Kanchwala Bldg1St Floor,Usman Brigadier Marg, Eraskin Road,Null Bazar Congested Area",18.9578557,72.8295767
115,"C 117 400003 3Rd Floor, Jai Hind Estate,Dr.A.M.Road,Bhuleshwar Congested Area",18.9525781,72.8274072
116,"C 118 400003 ,3Rd Kumbharwada Congested Area",18.9603221,72.827236
117,"D 119 400004 Yusuf Mansion,2Nd Cross Lane,Khetwadi  Congested Area",18.9607261,72.8205754
118,"D 120 400004 Khetwadi 3Rd Cross Lane,Panchmukhi Hanuman Temple,Khetwadi",18.9581018,72.8233148
119,"D 121 400004 Ashok Bldg,Ad Street Opp Chandaramji School,Charni Raod",18.9555474,72.8249282
120,"D 122 400004 Lehari Mnsion,Khetwadi 2Nd Lane,Khetwadi Congested Area",18.9580748,72.8252778
121,"D 123 400004 419 Noor Mohammad Begum Bldg,V.P Road,Girgoan",18.9602477,72.824753
122,"D 124 400004 Bldg No 3 Gaiwadi,Near Vyaym Shala,Girgoan",18.9579877,72.8214399
123,"D 125 400004 Poonawala Bldg,J S S Road,Kele Wadi,Girgaon",18.9535028,72.82085
124,"D 126 400004 Narayanwadi,Khadilkar Road,C P Tank",18.955026,72.8236451
125,"D 127 400004 Govardhan Bhuvan,11Th Khetwadi ",18.9596032,72.8213152
126,"D 128 400004 Dinath Bldg,P B Marg,Grant Raod,Grant Raod",18.9609873,72.8233195
127,"D 129 400004 Bldg No 40,R R Marg,",18.9542106,72.8181375
128,"D 130 400004 Moti Mansion,5Th Lane,Khetwadi,Girgaon",18.9588081,72.8242452
129,"D 131 400004 Vinayak Vibhuti,Lamington Rd,Near Dreamland Cinema,Grant Raod East",18.9579877,72.8214399
130,"D 132 400004 Bldg 33/H,Mughbhat Cross Lane,Girgaon",18.9532945,72.8232912
131,"D 133 400004 16 Meher Baksh,6Th Kharwa Lane,Girgaon",18.9598051,72.8254552
132,"D 134 400004 Khushboo Bldg,Datta Mandir,Kotachiwadi",18.9556405,72.820307
133,"D 135 400004 7Th Haji Suleman Bldg,P B Marg,9Th Cross Lane Masjid Lane,Grant Road",18.9602024,72.8244107
134,"D 136 400004 Bedekar Sadan,Tatya Gharpure Path,Girgaon",18.9536838,72.8226402
135,"D 137 400004 Badsha Bldg,P.B Marg,",18.9593705,72.8251478
136,"D 138 400006 Sagar Nagar,Walkeshwar,Walkeshwar Rd",18.9513341,72.8028149
137,"D 139 400006 Mata Pravati Rahvasi Sangh,Dr. B.I Rd,Walakeshwar,Napean Sea Rd Congested Area",18.9570948,72.7997731
138,"D 140 400006 Prem Nagar Zopadapai,Dr B.I Road,Malabar Hill Congested Area",18.9540855,72.8004477
139,"D 141 400006 Sagar Nagar Zopadapati,Dr B.I Road,Near Kalimata Nagar,Walkeshwar Congested Area",18.9540855,72.8004477
140,"D 142 400006 Ramkhud Nagar,Banganga,Walkeshwar",18.9454723,72.7936432
141,"D 143 400007 Firoza Mansion,Lamington Road,Shapur Baug,Grant Road",18.9595882,72.8172203
142,"D 144 400007 Ratan Luxuria,Grant Rd,Nathia Hospital,Grant Rd",18.9647811,72.8151931
143,"D 145 400007 Vastu Shilp Chs,Gamadia Colony,Tardeo",18.9683081,72.813105
144,"D 146 400007 Singhania Bldg,Balaram Street,Grant Road",18.9631687,72.8199267
145,"D 147 400007 Dattatray Bldg,Tukaram Javaji Rd,Grant Road West",18.9661532,72.8149886
146,"D 148 400007 Khilchi Terrace,R.K Street,Near Mallan Mall Market",18.9618411,72.8133825
147,"D 149 400007 Abbasi Bldg,P B Marg,Play House Bus Stop ",18.9634041,72.8213901
148,"D 150 400007 Navyug Niwas, Lamington Road,Opp Minerva Cnema,Grant Raod",18.9650866,72.818919
149,"D 151 400007 Geeta Biulding,Pandita Ramabai Rd,Gamdevi",18.9583115,72.8114671
150,"D 152 400007 Rippon Bldg,Balaram Street,Grant Road East",18.9631687,72.8199267
151,"D 153 400007 48 Jk Bldg,D G Marg,Gamdevi Temple,Grant Road",18.9590382,72.8131962
152,"D 154 400007 United Chamber,M S Ali Rd,Opp Bharat Nagar",18.9616007,72.8205674
153,"D 155 400008 Murga Giran Building,P B Marg,Kamathipura,Kamathipura",18.9636949,72.8215909
154,"D 156 400008 Mangli Kanduri Chawl,R S Nimkar Marg,Grant Road Congested Area",18.9662344,72.8234191
155,"D 157 400008 Batata Chawl,P B Marg,Grant Road,Grant Rd Congested Area",18.9630543,72.8215794
156,"D 158 400008 Noor Manzil,6Th Kumbharwada,Chor Bazar,Kamathipura",18.961031,72.8260643
157,"D 159 400008 Lokhandwala Chawl,Bapty Road,Arab Galli,Grant Road Congested Area",,
158,"D 160 400008 Karim Bldg,P.B Marg,9Th Cross Lane,Grant Rd",18.9602024,72.8244107
159,"D 161 400008 Rpf Barrack Terrace,Grant Rd East,Grant Rd",32.2506076,-110.9109109
160,"D 162 400008 Hakimwadi,P.B Marg,Opp Daulat Complex,Grant Rd",18.9632775,72.8224268
161,"D 163 400008 B I T Chawl No 16,Bellasis Rd,Mumbai Central Congested Area",18.9686276,72.8220111
162,"D 164 400008 Purshottam Bldg,P B Marg,",18.9622728,72.8225317
163,"D 165 400008 32 Kasam Bldg,T.P Raod,Kamathipura,Girgaon",18.9611624,72.8261147
164,"D 166 400008 Kukawala Bldg,M.S Ali Road,Mumbai Central",18.9617757,72.8244304
165,"D 167 400008 Shankarseth Chawl,Jairaj Bai Lane,",18.9671396,72.8286571
166,"D 168 400008 150 Muncipal Chawl,Shuklaji Street,Opp Bilal Masjid,Grant Road",18.9671396,72.8286571
167,"D 169 400008 Parvati Mansion,Kharva Galli,Grant Road East",18.9653927,72.8182417
168,"D 170 400008 Narthani Hights,Lamington Road,Opp Mumbai Central ",18.9683324,72.8203431
169,"D 171 400008 Habib Manzil,Grant Raod,Grant Raod",18.9633235,72.8162577
170,"D 172 400008 Suleman Tower,Bapty Rd,Grant Raod",18.963635,72.8239112
171,"D 173 400008 Lokhandwala Bldg,Kharva Lane,Grant Raod",18.9671396,72.8286571
172,"D 174 400008 Crystal Tower,Arab Lane,M .T Ansari Marg,Grant Road",18.9631328,72.8229729
173,"D 175 400026 Shyam Niwas Building,Bhulabai Desai Road,Breach Candy Hospital,Cumballa Hil",18.972711,72.804394
174,"D 176 400026 Vallabh Apartment,Bhulabai Desai Road,Breach Candy Hospital,Cumballa Hill",18.9674939,72.8039566
175,"D 177 400026 Stable Building,Bhulabhai Desai Rd,Breach Candy Hospital,Malbar Hill",18.972711,72.804394
176,"D 178 400026 Darya Sagar Zopadapai,B.D Road,Mahalaxmi Congested Area",18.9723185,72.8051864
177,"D 179 400026 It Colony,Off Pedder Road,Cumbala Hill",18.9719567,72.8093794
178,"D 180 400026 Shirpal Nagar,J Mehta Marg,Rangatha Lane",18.9490032,72.7962294
179,"D 181 400034 Dmd Jhopadpatti,Tardeo Rd,Tulsiwadi,Tardeo Congested Area",18.9743341,72.813413
180,"D 182 400034 Tulsiwadi Zopadpatti,Bhanjibhai Rathod Marg,Mata Mandir,Tardeo Congested Area",18.9763957,72.8184145
181,"D 183 400034 A1 Bldg,Ambedkar Nagar,Tardeo",18.9724162,72.8148177
182,"D 184 400034 Tulsiwadi Zopadpatti,B R Marg,Tulsiwadi Congested Area",18.9747163,72.8139964
183,"D 185 400034 Tulsiwadi Zopadpatti,Behind Post Office,Tulsiwadi Congested Area",18.9728294,72.818386
184,"D 186 400034 R.T.O Chana Shop,Near Tardeo Rto,Tardeo",18.9732783,72.8167861
185,"D 187 400034 Ashirwad Bldg,Tardeo Raod,Mumbai Central,Janata Nagar",18.9718535,72.8131046
186,"D 188 400034 Gandhi Mansion,Wadia Streer,Tardeo,Tardeo",18.9693159,72.8160781
187,"D 189 400034 Bldg No 7,Tardeo Road,Tardeo Police Camp,Tradeo",18.9695434,72.8141132
188,"D 190 400034 Germen Darshan,Ac Market,Tradeo",18.9728588,72.8139719
189,"D 191 400034 Ambika Bhavan,Wadia Street,Tardeo",18.9702878,72.8156126
190,"D 192 400034 Bldg No 6 Arya Nagar,Tulsiwadi,Tardeo",18.974605,72.8135426
191,"D 193 400034 Rtp Lane,Tulsiwadi,Tardeo",18.9747163,72.8139964
192,"D 194 400034 Bhanjibhai Rathod Marg,Tulsiwadi,Tardeo",18.9763957,72.8184145
193,"D 195 400034 Transit Camp No 10,Tulsiwadi,Tardeo Congested Area",18.9747163,72.8139964
194,"D 196 400034 New Jaiphalwadi,Tardeo,Tardeo",18.9691984,72.8124011
195,"D 197 400034 Shiv Darshan Bldg,M P Mill Compound,Tardeo",18.9703272,72.8136495
196,"D 198 400036 Godreg Baug,Napean Sea Rd,Napean Sea Rd",18.959984,72.8037254
197,"D 199 400036 Caswasji Bhedwar (Dhobighat) Chawl,Forjett Street,Grant Road West,Grant Road West Congested Area",18.9649331,72.8116622
198,"D 200 400036 Anurag Bldg,B D Road,",18.9625236,72.8050184
199,"E 201 400008 Bmc Bldg.,Chandramani Buddhvihar Marg,Two Tank,Kamathipura",18.9648916,72.8261411
200,"E 202 400008 666 Tenament,B J Marg,Jocob Circle,Byculla Congested Area",18.9807447,72.8270215
201,"E 203 400008 Shirinbhai Chawl,Morland Road,Mumbai Central",18.9719086,72.8258845
202,"E 204 400008 Patra Chawl,B. J. Marg,Byculla",18.9753596,72.8312175
203,"E 205 400008 Nayee Chawl,3Rd Ghelabhai Lane,Mandapura Congested Area",18.9716581,72.8269844
204,"E 206 400008 7Th Lane,Kamathipura Congested Area",18.964976,72.8260382
205,"E 207 400008 Kasam Hathi Chawl,Kamathipura 1St Lane,Kamathipura Congested Area",18.9628838,72.8260565
206,"E 208 400008 Bambkhana,M.A. Road,Kamathipura(Eye Hospital),Kamathipura",18.9678201,72.828458
207,"E 209 400008 2Nd & 4Th Lane,Kamathipura",18.964169,72.8259201
208,"E 210 400008 Fire Brigade Office,Shaikh Hafizuddin Marg,Behind Bmc E Ward Office,Byculla",18.9718778,72.8313269
209,"E 211 400008 Aksa Manzil,M A Road Madanpura,Ghosh Bazar,Byculla Congested Area",18.9705424,72.8280025
210,"E 212 400008 7Th Gully,Kamthipura,Byculla Congested Area",18.9648916,72.8261411
211,"E 213 400008 Acharwala Building,Undriya Street Nagpada,Nagpada,Byculla",18.9622042,72.8303499
212,"E 214 400008 Haji Building, Opposite Garden Hall,Vasil Khan Marg, Ahbedhi Bakhri Retha Bakri,Nagpada,Byculla",18.9652566,72.8295224
213,"E 215 400008 Bmc Chawl, Milind Nagar,Tank Pakadi Road,Opposite Shamim Palace,Byculla Congested Area",18.9755095,72.8280764
214,"E 216 400008 Bavala Building,Megraj Sethi Marg,Near Badlu Rangari Street, Huda Masjid,Byculla",18.988824,72.834143
215,"E 217 400008 Hiraji Govindji Bldg.,Sir J J Road,Richardson Crudas,Byculla",18.966793,72.8332684
216,"E 218 400008 Arkediya Bldg,Near J J Road,Byculla",18.9695993,72.8327095
217,"E 219 400008 Sidharth Nagar,Nagpada,Eye Hospital,Byculla",18.9626588,72.82533
218,"E 220 400008 Old Boys Hostel J J Compound Quarters,Jj Road,Jj Hospital,Byculla",18.9639366,72.8334328
219,"E 221 400008 Bootvala Building Roadside Saloon,Dimtimkar Road Nagpada,Opposite Ahmed Solar School,Byculla",18.9656126,72.830147
220,"E 222 400008 Chasmawali Chawl Ghosht Bajar,Mohb. U Rajja Road Madanpura,Byculla Congested Area",18.9703745,72.8271764
221,"E 223 400008 Suhag Palace Ymca Ground,Agripada,Ymca Ground,Byculla",18.9721213,72.824776
222,"E 224 400008 Mt Section B Block Near Sevaniketan Petrol Pump,Sheafered Road,Shankar Mandir,Byculla",18.9681708,72.8325333
223,"E 225 400008 Mt Real Building 2Tank,Ma Road,Police Chowki,Byculla",18.9754852,72.8274008
224,"E 226 400008 Building No.101,6Th Lane,Shankar Pupala Road,Nakoda Medical Store,Byculla",18.9671396,72.8286571
225,"E 227 400008 Mombatti Manzil,Mohd Umar Razzak Road,Ghoshbazar Opp. Mohd Razzak School,Byculla",18.97063,72.8263224
226,"E 228 400008 Chawl No.21, Kazipura,M.A.Road,Next To Sagar Hotel,Byculla",18.9637153,72.8298879
227,"E 229 400008 Jamunadas Building,2Taki,Nagpada,Near V.P. Road Police Station,Nagpada",18.9670153,72.8292274
228,"E 230 400008 Pattharvali Building Baban Gully,Sakali Street,Ashadhan,Byculla",18.9720215,72.8288694
229,"E 231 400008 Sutar Gully,Morland Road,Ghosht Bajar,Byculla",18.9706917,72.8274323
230,"E 232 400008 Aarcivala Building,3Rd Pirkhan Street,Opp. Zulfikar Hotel,Byculla",18.9758224,72.8343323
231,"E 233 400008 Gajghar Building, Jj Hospital Nagpada,27 Undriya Street,Masjid,Byculla",18.9629624,72.8299654
232,"E 234 400008 Vidyut Locoshed,Shivdas Chapsi Road Mazgaon, Infinity Tower,Byculla Congested Area",18.9661321,72.8388506
233,"E 235 400008 Om Niwas Kamthipura 8Th Lane,Nagpada,Nagpada Police Station,Byculla",18.9670153,72.8292274
234,"E 236 400008 Bmc Chawl,Kamathipura,Joshi Bhaji Market,Byculla Congested Area",18.9648916,72.8261411
235,"E 237 400008 Shivam Appartment,Kamathipura Morland Road,Bhaji Market,Byculla",18.9719086,72.8258845
236,"E 238 400008 Zainab Tower,Nagpada,Opposite Samudra Resturant,Nagpada",18.9682864,72.8309623
237,"E 239 400008 Suchak Building 8Th Lane,Kamathipura,Amin Patel Office,Byculla",18.965435,72.826269
238,"E 240 400008 Supreme Heights,2Nd Kamathipura,Shuklaji Street,Byculla",18.966091,72.824396
239,"E 241 400008 Mestry Ki Chawl,2Nd Gelabai Madanpura,Ghosht Bajar,Byculla Congested Area",18.9703745,72.8271764
240,"E 242 400008 Bandukwala House,Sakali Street,Ashadhan,Byculla",18.9725494,72.8290459
241,"E 243 400008 Memni Building,Nagpada,Daood Nursing Home,Nagpada",18.9667195,72.8288526
242,"E 244 400008 Jainam Tower,Ma Road,Near Mane Garden,Nagpada",18.9678201,72.828458
243,"E 245 400008 Dhodhwala Complex,Belasis Road,City Mall,Bombay Central",18.9685423,72.8227037
244,"E 246 400008 Jj Hospital Metron Office,Jj Road,Jj Hospital,Byculla",18.9630684,72.8336083
245,"E 247 400008 Niwasi Residence Hostel(Boys),Jj Road,Jj Hospital,Byculla",18.9630684,72.8336083
246,"E 248 400008 Fakri Manzil,Nagpada,Opp. Bismilla Heights,Teli Mohalla",18.9636188,72.8314836
247,"E 249 400008 Haji Kasam Chawl,Nagpada,Teli Mohalla Congested Area",,
248,"E 250 400008 Dhanvantari Building In Jj Hosp.,Jj Road,Jj Hospital,Byculla",18.9630684,72.8336083
249,"E 251 400008 Temkar Street,Near Alham Tower,Nagpada",18.9620546,72.8310733
250,"E 252 400008 Rasul Manzil,Hujeria Street,Jj Hospital,Byculla",18.9630684,72.8336083
251,"E 253 400008 Mt Section,Sheferd Road,Opp. Sabu Siddiqui College,Nagpada",18.9685351,72.8310192
252,"E 254 400008 Dudhwala Building/Rasul Jiba Building,Sk Burhan Street,Telli Mohalal,Nagpada",,
253,"E 255 400008 Affiya Heights,Dimtimkar Road,Near Goodluck Motor Training School,Nagpada",18.9635437,72.8318517
254,"E 256 400008 Yusuf Manzil,Nagpada,Opp. Police Hospital,Nagpada",18.9704572,72.8323002
255,"E 257 400008 Sidddharth Nagar,Shanak Pupala Marg,Behind Eye Hosp.,Byculla",18.9628838,72.8260565
256,"E 258 400008 Sidddharth Nagar,Shanak Pupala Marg,Behind Eye Hosp.,Byculla",18.9628838,72.8260565
257,"E 259 400008 Sidddharth Nagar,Shanak Pupala Marg,Behind Eye Hosp.,Byculla",18.9628838,72.8260565
258,"E 260 400008 2 Panchashil Nagar 23.169,5Th Lane Kamathipura,Police Chowky,Kamathipura",18.9590113,72.8244071
259,"E 261 400008 Sidharth Nagar,Shanak Pupala Marg,Behind Eye Hosp.,Byculla",18.9628838,72.8260565
260,"E 262 400008 Sidharth Nagar,Shanak Pupala Marg,Behind Eye Hosp.,Byculla",18.9628838,72.8260565
261,"E 263 400008 Building No.32,S P Road,Opp. Amim Patel Office,Kamathipura",18.9648916,72.8261411
262,"E 264 400008 Java Masjid Building,Arbia Belasis Road,Above Arabia Hotel,Kamathipura",18.9682063,72.8247639
263,"E 265 400008 Daoodi Bohra Trust Building No.390,4Th Pirkhan Street Sir Jj Road,Jj Road,Nagpada",18.9645856,72.8319482
264,"E 266 400010 Sanjay Gandhi Nagar,J J Marg,Railway Compound,Mazgaon Congested Area",18.96298,72.8323312
265,"E 267 400010 Sana Height,Barkat Ali Virani Marg,Nagpada",18.9637026,72.8306849
266,"E 268 400010 Belvedar Hill,Shivdas Chapsi Marg,Next To St. Peter School,Mazgaon",18.9676876,72.8404124
267,"E 269 400010 Lakdi Bander Motor Line Daru Khana,Motor Line Daru Khana,Udipi Hotel,Mazgaon Congested Area",18.9744289,72.8483632
268,"E 270 400010 Byculla Police Line Quarters,Hansraj Lane,Byculla Police Station,Byculla East",18.9736085,72.8340163
269,"E 271 400010 Kawla Bundar,Reay Road,Near Mariamma Mandar, New Tank Bundar Road,Reay Road Congested Area",18.9774518,72.8441593
270,"E 272 400010 Vishal Tower,Love Lane Motishah Lane,Near Suprabhat Hotel,Mazgaon",18.9720628,72.8373445
271,"E 273 400010 New Irani Chawl,Rambhau Bhogle Marg Ghodpdeo,Opposite Piramal Construction,Mazgaon Congested Area",18.9728223,72.8403065
272,"E 274 400010 Bit Chawl No. 2,Love Lane Road,Mcgm Despensary,Mazgaon Congested Area",18.9722815,72.8369548
273,"E 275 400010 Shinde Chawl Nariyalwadi,Rambhau Bhogle Marg,Kedar Hospital,Mazgaon Congested Area",18.9769784,72.8414784
274,"E 276 400010 Sunni Kabrasthan Reay Road(Inside),Sant Savta Marg,Drk Chowki,Raey Road Congested Area",18.9774518,72.8441593
275,"E 277 400010 Bit Talwadi Chawl,Saint Merry Road,Talwadi Municipalty School,Mazgaon Congested Area",18.9693314,72.8359007
276,"E 278 400010 Bit Chawl,Tadwadi Mazgaon Transit Team,Icici Bank,Mazgaon Congested Area",18.9649123,72.8418849
277,"E 279 400010 Tadwadi Bit Chawl No.5,St. Marry Road,Mazgaon Municipal School,Byculla",18.9674969,72.8377344
278,"E 280 400010 Khodadat Chawl D'Leema Street(Bakery),Pralahad Chendavankar Marg,Rosery School,Mazgaon",18.9672273,72.845086
279,"E 281 400010 Kawla Bunder Pakhija Gully,Raey Road,Jeevandhara Balvadi,Raey Road",18.9710218,72.8453775
280,"E 282 400010 Saheb Gully,Dr. Mascarence Road,Behind Tank Square Dispensary,Mazgaon",18.9701884,72.8459619
281,"E 283 400010 Tariya House, 39/A, Navanagar,Dockyard Road,Dockyard Station,Mazgaon",18.9674478,72.8445615
282,"E 284 400010 Tulsiwadi,Matar Pakhadi Road,Bhamarsingh Mithaiwala,Byculla Congested Area",18.9699669,72.841555
283,"E 285 400010 Bit Bldg. No. 12, St. Marry Road,Tadwadi Municipal School,Mazgaon",18.9680331,72.8380717
284,"E 286 400010 Adamkhan Building,D N Singh Road,Near Sahakari Bhanadar,Hathibaug",18.9701059,72.8397086
285,"E 287 400010 Abdul Rauf Manzil,Rb Marg,Opposite Mafatlal Mill,Ghodapdeo Congested Area",,
286,"E 288 400010 Amina Manzil,Hussain Patel Marg,Pahadivali Masjid,Mazgaon Congested Area",18.9652187,72.8418421
287,"E 289 400010 Ambewadi Beithi Chawl,Matarpakadi Road,Behind Darbar Hotel,Mazgaon Congested Area",18.9701862,72.8409119
288,"E 290 400010 New Tank Bunder Kawla Bunder,Reay Road,Mariyamma Mandir,Raey Road Congested Area",18.9701884,72.845962
289,"E 291 400010 Apna Clinic Dr. Sanjay Dalvi Clinic Kawla Bunder,New Tank Bander Road,New Fashion Tailor,Raey Road Congested Area",18.9701884,72.845962
290,"E 292 400010 Bharat Chs 65/A,Dockyard Road,Opposite Health Pst,Mazgaon",18.9683259,72.8427089
291,"E 293 400010 61 Bandukwala Building,D'Lima Street,Near Sainath Hotel,Mazgaon",18.9651576,72.8444575
292,"E 294 400010 3/46 New Bodyguard Police Line,Dockyard Road,Near Rosary School,Mazgaon",18.9668334,72.8450696
293,"E 295 400010 Kawla Bunder,New Tank Bunder,Premdan Balwadi,Raey Road Congested Area",18.9774518,72.8441593
294,"E 296 400010 Copper Castle,Jm Rathod Marg,Mazgaon",18.9648069,72.8393903
295,"E 297 400010 Wadi Bunder,Jm Rathod Marg,Hanuman Mandir,Mazgaon Congested Area",18.9640328,72.8418363
296,"E 298 400010 Kawla Bunder,New Tank Bunder Road,Near Premdan Balwadi,Raey Road Congested Area",18.9701884,72.8459619
297,"E 299 400010 Chamber Castle Building,D'Lima Street,Juna Bajar,Mazgaon",18.9651576,72.8444575
298,"E 300 400010 Abu Bukar Chawl Shanti Nagar,New Tank Bunder Road,Darukhana,Raey Road Congested Area",18.9710218,72.8453775
299,"E 301 400010 Mazgaon Appartment,Rb Marg,Opp. Mafatlal Mill,Mazgaon",18.9784739,72.8408659
300,"E 302 400010 Bit Chawl No. 5,St. Merry Road,Muncipal School,Mazgaon",18.9674969,72.8377344
301,"E 303 400010 Tadvadi Bit Chawl No.10,St. Merry Road,Muncipal School,Mazgaon",18.9693314,72.8359007
302,"E 304 400011 Khusnuma Apartment / Bit Chawl,M A Road / M. S. Ansari Marg,Kalapani,Agripada",18.9754852,72.8274008
303,"E 305 400011 B. J. Marg,Kanjarwada,Byculla",18.9758477,72.8308237
304,"E 306 400011 Transit Camp,Tank Pakhadi Street,Kalapani,Mominpura Congested Area",18.9750703,72.8294863
305,"E 307 400011 Kermani Building (Anand Estate),N. M. Joshi Marg,Arthur Road Naka,Chinchpokli",18.9861103,72.8316247
306,"E 308 400011 Transist Camp,Tank Pakadi Street,Mominpura Congested Area",18.9810451,72.8267579
307,"E 309 400011 Dagdi Chawal,B.J. Marg,Dagadi Chawl,Dagadi Chawl",18.978777,72.8285352
308,"E 310 400011 Vithal Sadan Maruti Gully,N.M Joshi Marg,Byculla Stn.,Buyculla Congested Area",18.988597,72.8349395
309,"E 311 400011 Chavhan Mension,Tank Pakadi Road,Opposite Khatao Mill,Byculla",18.973992,72.8312385
310,"E 312 400011 Bage Rabbani Appartment,Megraj Sethi Marg,Badliwala Charitable Dispensary,Byculla",18.9736116,72.8292895
311,"E 313 400011 Rasul Jiva Compound,Kk Road 7Th Rasta,Jacob Circle,Byculla Congested Area",18.9808407,72.828296
312,"E 314 400011 Peer Bhai Mension,Morland Road,Sahara Medical Store Halim Manjil,Byculla",18.9746223,72.8267943
313,"E 315 400011 Doodh Wala Complex,Belasis Road,Near Bombay Central Bus Depot,Byculla",18.96875,72.8219557
314,"E 316 400011 Dubhash Buiding,Bapurao Jagtap Marg,Lakhpati Hotel,Byculla",18.9766341,72.8300606
315,"E 317 400011 Mandar Nikatan, N.M. Marg Joshi,M.C.G.M. Dispancery,Byculla",18.9806847,72.8317581
316,"E 318 400011 Ar-Rayyan Tower,M.A.Road,Agripada,Near Zulha Madian,Byculla",,
317,"E 319 400011 Chandramani, Buddha Vihar,Kamathi Pura,Nar Bharat Gas Agency,Byculla Congested Area",18.9645247,72.827943
318,"E 320 400011 Noorani Chawl,M A Road,Hari Masjid,Byculla Congested Area",18.9754852,72.8274008
319,"E 321 400011 Hari Jayram Building,Sakali Street,Jhula Maidan,Byculla",18.9744584,72.8270665
320,"E 322 400011 Sagar Classes,Clair Road,Saint Agnes School,Byculla",18.9810451,72.8267579
321,"E 323 400011 New Police Line Agripada,Agripada,Jai Bajrang Krida Mandal, Near Old Police Line Opposite Unity Park,Byculla",18.9763161,72.8270934
322,"E 324 400011 Madina Compound,7Th Rasta, Bapurao Jagtap Marg,Opposite 666 Tenament,Byculla",18.978882,72.8285133
323,"E 325 400011 Parijat Building Sunder Gully Naka,B J Marg,Opposite Shivshakti Building,Byculla",18.9755525,72.8308923
324,"E 326 400011 Badlu Rangari Street Patra Chawl,Megraj Sethi Marg,Souter Street Health Post,Byculla Congested Area",18.9736378,72.8291409
325,"E 327 400011 Kamathipura 4Th Gully,Laxmikant Bar, Near Mns Office,Byculla Congested Area",18.9648916,72.8261411
326,"E 328 400011 Nair Road,Iti College,Byculla",18.9745529,72.8231347
327,"E 329 400011 Laxmi Residency,Station Road,Near Maruti Gully. Opposite Byculla Station West,Byculla",18.978315,72.8317163
328,"E 330 400011 Rangwala Mansion, Agripada Fancy Market,Agripada,Opposite Jhula Maidan,Byculla",18.9744584,72.8270665
329,"E 331 400011 Gate No. 5 Patra Chawl,Tank Pakadi Road,Katau Mill,Byculla Congested Area",18.973992,72.8312385
330,"E 332 400011 Meghraj City Zopdi,Near Fire Brigade,Byculla Congested Area",18.9810451,72.8267579
331,"E 333 400011 Pansare Chawl,Arthur Road,Chinchpokli Railway Station,Byculla Congested Area",18.9872162,72.8327925
332,"E 334 400011 Modern Mill Zopdi,Sane Guruji Marg,Vaishali Nagar,Byculla Congested Area",18.9847131,72.8299869
333,"E 335 400011 Ksa Heights,1St Sakali Street,Near Zumma Masjid,Byculla",18.9725767,72.8300556
334,"E 336 400011 Bit Chawl Ground Floor,Meghraj Sethi Marg,Andrew Church,Byculla Congested Area",18.9736116,72.8292895
335,"E 337 400011 Kismat Manzil,Badlu Rangari Street,Behind E Ward,Byculla",18.9718778,72.8313269
336,"E 338 400011 Pandur Vala Mahal,2Nd Sakali Street,Near Ripon Tower,Byculla",18.9810451,72.8267579
337,"E 339 400011 Raja Bahadur Building,Nagpada Junction,Sagar Hotel,Byculla",18.9650239,72.8289394
338,"E 340 400011 New Lambi Chawl, D Block,Kamathipura 5Th Lane,Byculla Congested Area",18.9632053,72.8277765
339,"E 341 400011 Moti Mension,Sir J J Road,Opposite Police Hospital,Byculla",18.9695993,72.8327095
340,"E 342 400011 Meri Mahal,Nagpada,Byculla",18.9641028,72.8305238
341,"E 343 400011 Ashirwad Niwas, Kamathipura,8Th Gully,Opposite Macchi Market,Byculla",18.9648916,72.8261411
342,"E 344 400011 Kamlesh Jaidev Building,5Th Gully Kamathipura,Kamathipura,Byculla",18.9648916,72.8261411
343,"E 345 400011 Blue Heaven Bldg., Near Gulistan Bldg.,Agripada,Agripapa Municipal School,Byculla",18.9747037,72.8252163
344,"E 346 400011 Rbi Staff Quarters,Ymca Road,Maratha Mandir,Byculla",18.9705298,72.8228042
345,"E 347 400011 Adam Siddiqui Chawl,Ghosh Bazar,Near Hari Masjid,Byculla Congested Area",18.9810451,72.8267579
346,"E 348 400011 Badliwala Apparement,Cross Road, Rippon Road,Near Husaini Baug, Opp. Hari Masjid,Byculla",18.9740406,72.8372572
347,"E 349 400011 New Agakhan Bldg.,M.A Road,Agripada,Byculla",18.9820636,72.8264028
348,"E 350 400011 12 Sahara Palace,Sakli Street,Byculla",18.97256,72.8282904
349,"E 351 400011 Isha Mention,B.J. Marg,Lakpati Hotel,Byculla",18.9765903,72.8302246
350,"E 352 400011 Sagar Building Sunder Gully,Bj Marg,Khatau Mill Naka,Byculla",18.9754074,72.8305461
351,"E 353 400011 Chaitanya Building,Bjmarg,Khatau Mill Naka,Byculla",18.9756477,72.8304768
352,"E 354 400011 Kinjal Residency Agripda,Agripada,Opposite Mtnl Office,Byculla",18.9762873,72.8257228
353,"E 355 400011 Redimani Hsg,Clair Road,Opposite Bata Showroom,Byculla",18.9699987,72.8302623
354,"E 356 400011 Jubilee Compound,Sheikh Haffizuddin Marg,Near Ashadham,Byculla",18.9721083,72.8299365
355,"E 357 400011 Shivneri Hostel Byculla West,Station Road,Byculla Station West,Byculla",18.9760704,72.8311503
356,"E 358 400011 New Tank Bander Darukhana,Raey Road,Near Dr. Sudarshan Clinic,Byculla Congested Area",18.9701884,72.845962
357,"E 359 400011 Danish Villabajar Madanpura,3Rd Gelabai Street,Ghosht Bajar,Byculla",18.9703745,72.8271764
358,"E 360 400011 Nilkanth Building Bakri Adda,Nm Joshi Marg Chinchpokli,Opposite Bmc Press,Byculla",18.983301,72.8317725
359,"E 361 400011 Farjan Appt.,Badlu Rangari Street Sheikh Haffizudin Marg,Behind E Ward Office,Byculla",18.9718778,72.8313269
360,"E 362 400011 Pansare Chawl,Nm Joshi Marg Chinchpokli,Chinchpokli,Byculla Congested Area",18.9920227,72.8314767
361,"E 363 400011 Baya Park Janata Sevak,Byculla Station Road,Byculla Station,Byculla",18.9771208,72.8307456
362,"E 364 400011 Gharkul Building 1St Cross Lane Behind Bele Shop,Byculla Station Road,Opp. City Trust,Byculla",18.9775511,72.831377
363,"E 365 400011 Suryaji Compound,Tank Pakhadi Road,Lucky Compound,Byculla Congested Area",18.9750836,72.8288117
364,"E 366 400011 Afrishower Building,Sakhli Street,Behind E Ward Office,Byculla",18.9718778,72.8313269
365,"E 367 400011 B.I.T. Chawl Agripada, Fancy Market,Agripada,Zula Maidan,Byculla",18.9748849,72.8267395
366,"E 368 400011 Nilgiri H.S.G.Soci. Agripada,Agripada,Opp. M.T.N.L. Office,Byculla",18.9810451,72.8267579
367,"E 369 400011 Topaz Tower,Nair Road,Near Nair Hospital,Byculla",18.9744076,72.8222909
368,"E 370 400011 Santosh Bhavan,Meghraj Shetty Marg,B.M.C. Meghraj Shetty School,Byculla",18.9739772,72.8276064
369,"E 371 400011 Arihant Heights,Hindustan Masjd,Byculla",18.9518459,72.8356879
370,"E 372 400011 Pani Kahte Chawl 564,N M Joshi Marg,Opposite To S Bridge Municipal School,Byculla Congested Area",18.9791583,72.8320363
371,"E 373 400011 Building No. 2 Hans Road,Bj Marg,Bj Road Post Office,Byculla",19.0490202,72.820635
372,"E 374 400011 Shivneri Building,Bj Marg,Opposite Sunder Gullynear Dargah,Byculla",18.9753156,72.8314693
373,"E 375 400011 Lambi Cement Chawl,Ms Ansari Marg,Opposite Sushanti Church,Byculla Congested Area",18.9766096,72.8295899
374,"E 376 400011 Hanuman Prasad Building,Bj Marg,Opposite Sunder Gully,Byculla",,
375,"E 377 400011 Railway Quarters D R M Officers Quarters,Agripada,Near Nair Hospital,Bombay Central",18.9682834,72.833862
376,"E 378 400011 Abdulla Mension,Sakali Street,Badlu Rangari Street,Byculla",18.9736378,72.8291409
377,"E 379 400011 Hilton Residency,Bj Marg,Opp. Sundar Gully,Byculla",18.9763632,72.8303334
378,"E 380 400011 Vasudev Vinayak Chawl,N.M. Joshi Marg,Bakri Adda, Bmc Garage,Chinchpokli Congested Area",18.983301,72.8317725
379,"E 381 400011 Mussa House No.620,B.J.Marg,Near Bank Of Badoda,Byculla",18.9760669,72.8306469
380,"E 382 400011 Dukhi Seth Ki Chawl,2Nd Gela Bai Street,Hari Masjid,Madanpura",18.9703745,72.8271764
381,"E 383 400011 Chota Sonapur, Bilal Masjid,Shautak Ali Road,Vivan Road,Kamthipura",18.9566733,72.8327624
382,"E 384 400011 Narayan Bhavan,N M Joshi Marg,1St Cross Lane,Byculla",18.9776833,72.8318166
383,"E 385 400011 Kachare Harsh Building,Ma Road,Hari Masjid,Madanpura",18.9705424,72.8280025
384,"E 386 400011 53 Mohd. Azad India Building,Ma Road,Hari Masjid,Madanpura",18.972399,72.827535
385,"E 387 400011 Bakhar Chawl,Ma Road,Hari Masjid,Madanpura",18.9705424,72.8280025
386,"E 388 400011 Habib Palace,Sakali Street,Ashadhan,Byculla",18.9720215,72.8288694
387,"E 389 400011 Lucky Compound,Sakali Street,Tank Pakadi Road,Byculla",18.9743545,72.8285324
388,"E 390 400011 Killedar Mension,Mussa Killedar Street,Opp. Simplex Mhada,Byculla",18.978668,72.8295171
389,"E 391 400011 Poman Niwas,1St Crosslane,Opp. Kinjal Tower,Byculla",18.9780586,72.8308334
390,"E 392 400011 Ksa Residency,Ma Road,Naer Husseni Baug,Madanpura",18.9703745,72.8271764
391,"E 393 400011 Prabhat Building,Rb Chandorkar Marg,Police Station,Agripada",18.9769806,72.8244792
392,"E 394 400011 Aziz Castle Building,Anandrao Nair Road,Jhula Maidan,Agripada",18.9731604,72.8226839
393,"E 395 400011 Zunaid Manzil,Meghraj Sethi Marg,Meghraj Sethi Zopdi,Byculla",18.9736116,72.8292895
394,"E 396 400011 68 Fanaswala Building,Ma Road,Salvation Army Ngo,Byculla",18.9728101,72.8265174
395,"E 397 400011 Ksa Pride,Motlabhai Street,Near Wockhardt Hosp.,Byculla",18.976207,72.8244846
396,"E 398 400011 Islam Building Badlurangari Street,Meghraj Sethi Marg,Fire Brigade Zopdi,Byculla",18.9736116,72.8292895
397,"E 399 400011 Nemtulla Building,Bj Marg,Opp. Bank Off Baroda,Byculla",18.9771551,72.8297882
398,"E 400 400011 Afzal Chawl,Agripada,Opp. Nair Hosp.,Byculla",18.9707459,72.8212364
399,"E 401 400011 D K Residency,Meghraj Sethi Marg,Near Mothersa,Byculla",18.973,72.830129
400,"E 402 400011 Bit Chawl No.23,M G Marg Agripada,Police Station,Byculla",18.977405,72.824199
401,"E 403 400011 Byculla Jail Guest House,Clair Road,Byculla Jail,Byculla",18.9851452,72.8295767
402,"E 404 400012 Dattakripa Building Chinchpokli,Dr. B A Road,Voltas House,Chinchpokli",18.9863297,72.8359006
403,"E 405 400012 Vrundavan Building,Dr Ba Road,Opp. Jaihind Cinema,Chinchpokli",18.9858047,72.8358794
404,"E 406 400012 Shivshakti Building,Telli Gully,Near Ganpati Utsav,Chinchpokli",18.9880499,72.8344004
405,"E 407 400017 Masina Quarters,Sant Savata Marg,Massina Hospital,Byculla",18.9743706,72.8361472
406,"E 408 400027 Ram Nagar A,Dr. B A Road Byculla East,Opposite Rani Bagh,Byculla East",18.97871,72.8351211
407,"E 409 400027 Nasmi House,6Th Chamber Lane,Palace Cinema,Byculla East",18.9759324,72.8331947
408,"E 410 400027 Khan Building,Sant Savta Marg,Balaji Hospital,Byculla",18.97727,72.835352
409,"E 411 400027 Jerbai Baug Byculla East,Opposite Byculla Bridge,Byculla",18.9748689,72.8341927
410,"E 412 400027 Railway Nurses Quarters Opposite Rani Baug,Dr. B A Road,Railway Hospital,Byculla",18.9803317,72.8337021
411,"E 413 400027 Police Office Quarters,Susex Road,Spice Hotel,Byculla",18.9736085,72.8340163
412,"E 414 400027 Ajay Appartment,Hansraj Lane,Mankeshwar Mandir,Byculla",18.9712847,72.8334429
413,"E 415 400027 Maratha Compound Building,Es Patanvala Marg,Near Muncipal Dispensary,Byculla",18.9804598,72.83504
414,"E 416 400027 Masina Hospital Staff Quarters,Sant Savata Marg,Masina Hosp.,Byculla East",18.9762309,72.8413261
415,"E 417 400027 Bridge View Appt.,Hansraj Lane,Mankeshwar Mandir,Byculla East",18.9714134,72.8337959
416,"E 418 400027 Haji Allana Compound,Ss Marg,Near Mustafa Bajar,Byculla",18.9793266,72.8382547
417,"E 419 400033 Mhada Colony,Ram Bhau Bhogle Marg,Batliboy Compound Ground,Ghodapdeo",18.9822434,72.840843
418,"E 420 400033 Sanas Patra Shed,Dr. B. A. Road,Opp. Jaihind Cinema,Kalachowky Congested Area",18.9858047,72.8358794
419,"E 421 400033 Kandi Karkhana,Rb Marg,Bharat Bank,Ghodapdeo Congested Area",18.9814951,72.8410578
420,"FN 422 400014 Alt Block No.3,Mancherji Joshi Road, Dadar Parsi Colony,Dadar East Congested Area",19.0188693,72.8516181
421,"FN 423 400019 College,Natanlal Parek Marg,Matunga",19.0256922,72.8563319
422,"FN 424 400019 Sanjarkha House,Eden Walla Road,Opp Custom Quaters Near 5 Gardens,Matunga East",19.019747,72.854312
423,"FN 425 400019 Palai Ratan,Shankar Matham Road,Matunga East Congested Area",19.0281204,72.854525
424,"FN 426 400022 Navratna Bldg,Mhada Colony,Kokari Agar,Sion Congested Area",19.0365038,72.8712355
425,"FN 427 400022 Hanuman Chawl,Near Raoli Camp,Sion Koliwada Congested Area",19.0357375,72.8686745
426,"FN 428 400022 Police Officer Bldg,Pratikshanagar,Sion",19.0420838,72.8695851
427,"FN 429 400022 Seva Samiti Bldg,,Sion",19.0425604,72.8638089
428,"FN 430 400022 ,Pratiksha Nagar,Sion",19.0420838,72.8695851
429,"FN 431 400022 Bmc Bldg.No.G,Bhandarwada,Sion",19.0425604,72.8638089
430,"FN 432 400022 Ratan Sagar,Flank Road,Near Shanmukhanand Hall,Sion",19.0314375,72.8602527
431,"FN 433 400022 ,Pratiksha Nagar,Sion",19.0427504,72.870748
432,"FN 434 400022 Parijat Chs,Pratiksha Nagar,Sion",19.0423142,72.8720633
433,"FN 435 400022 Nisarg Chs,Pratiksha Nagar,Sion",19.0432523,72.8744978
434,"FN 436 400022 ,Sunder Kamala Nagar, Near Kings Circle,Sion Congested Area",,
435,"FN 437 400022 Shanta Niwas,Gujrat Society,Sion",19.0383886,72.8605251
436,"FN 438 400022 Sardar Nagar 3,Near Panchwati Bakery, Sion Koliwada,Sion",19.0403577,72.8644712
437,"FN 439 400022 Nehru Nagar, Mrd Sion Koliwada,Sion Congested Area",19.0403577,72.8644712
438,"FN 440 400022 Sham Dham Chs,,Sion",19.0451929,72.8636174
439,"FN 441 400022 Annasgar,Sion Koliwada Gtb Nagar,Sion",19.0357936,72.8655789
440,"FN 442 400022 Transit Camp,Gtb Sion Koliwada,Sion Congested Area",19.043,72.870206
441,"FN 443 400022 Shiv Sneha Society,Pratiksha Nagar Mhada Colony,Sion",19.0417159,72.8698474
442,"FN 444 400022 ,Pratiksha Nagar,Sion",19.0420838,72.8695851
443,"FN 445 400022 Maharastra Nagar Zopadpatti Sion Koliwada,,Sion Congested Area",19.0403577,72.8644712
444,"FN 446 400022 ,Hindustan Nagar Congested Area",20.0367278,73.8529332
445,"FN 447 400022 Mnv Colony,Sardar Nagar No1,Sion East",19.0384132,72.8666866
446,"FN 448 400022 Eagali Chawl Comitee,Nehru Nagar No 1 Bhind,Wadala Congested Area",19.0381685,72.8657115
447,"FN 449 400022 Madhu Mansion,Scheme 6 Bina Nurses Bureau",19.0434368,72.8624054
448,"FN 450 400022 Seva Samiti Nagar,Sion Koliwada,Sion",19.0327797,72.864102
449,"FN 451 400022 Ambedkar Nagar,Behind Kachru Yadav Office Sion Koliwada,Sion Congested Area",26.4683952,82.6915429
450,"FN 452 400022 Adarsh Chs,Rawali Camp Kokari Agar Sion Koliwada,Sion",19.0398768,72.870748
451,"FN 453 400022 Siddhivinayak Chs,Pratiksha Nagar,Sion",19.0432624,72.8748914
452,"FN 454 400022 Shastri Ngr,Sion Koliwada 22,Sion Congested Area",19.0408976,72.8720403
453,"FN 455 400022 Sunder Kamla Nagar Co.Op. Society,,Sion East",19.0326547,72.8501099
454,"FN 456 400022 Bharti Bhavan 73,Near Amulakh School,Sndt College King Circle,Sion East",19.0269091,72.8602888
455,"FN 457 400022 Meghdoot Bld.,Nr. Shanmukhanand Hall,Sion",19.0311556,72.8599713
456,"FN 458 400022 Panchashil Society,Behind Building No. 1, Makka Wadi,Sion",21.3890824,39.8579118
457,"FN 459 400022 Almeda Compound Z Patti,Nr Atta Compound, Sion Koliwada,Sion Congested Area",19.0403577,72.8644712
458,"FN 460 400022 Road No 19,Center Railway Colony Guru Teg Bahadur Nagar East,Sion",19.0379766,72.8643617
459,"FN 461 400022 Sai Baba Welfare Soc,Sanjay Gandhi Nagar,Sion East",19.0425604,72.8638089
460,"FN 462 400022 Shri Jain Shvetambar Murti Pajak Sangh,Jain Soc,Sion",19.0425604,72.8638089
461,"FN 463 400022 Sardar Nagar 3,Near Payanati Building, Mariaman Mandir,Sion Congested Area",,
462,"FN 464 400022 Bhaidas Chawl,Near Sion Talab, Opp Temple Hill Bldg,Sion Congested Area",19.0487707,72.865475
463,"FN 465 400022 Kamal Block, Shivaji Forte Chs,Near Sion Fish Market,Sion",19.045587,72.8653819
464,"FN 466 400022 Salanati Hill,Sardar Nagar,Sion",19.0384132,72.8666866
465,"FN 467 400022 Maharashtra Housing Board Colony,Mukundrao Ambedkar Road,Sardar Nagar 4 Raoli Camp,Sion",19.0354435,72.867408
466,"FN 468 400022 Gajanan Chawl,Nr Shiv Mandir, Indira Nagar, Shiv Koliwada,Sion Congested Area",19.038694,72.8696403
467,"FN 469 400031 ,Opp Ganesh Mandir Road Wadala West,Wadala",19.0149742,72.8551456
468,"FN 470 400031 ,Sewri Cross,Wadala Congested Area",19.0067318,72.8545315
469,"FN 471 400031 ,Wadala Village,Wadala Congested Area",19.0221649,72.8602115
470,"FN 472 400031 Chaitaya Building,,Wadala East",19.0132891,72.8548981
471,"FN 473 400031 Acharya Atre Nagar,Smd Road,Near Antop Hill Post Office,Wadala E Congested Area",19.0242035,72.8640254
472,"FN 474 400031 Shubam Chs,Mmrda Colony Kokri Agari Next To Gtb Monoral Sion Koliwada,Wadala E",19.0354435,72.867408
473,"FN 475 400031 Jai Gurudatt Mitra Mandal,Nr Vithal Mandir,Wadala Congested Area",19.0136454,72.8506612
474,"FN 476 400037 Sangam Nagar,S P Road,Antop Hill,Wadala East Congested Area",19.0216056,72.8688344
475,"FN 477 400037 Bharatiya Kamala Nagar,S P Road,Near Karbala Msjid, Antop Hill,Wadala East Congested Area",19.0218052,72.8677119
476,"FN 478 400037 Sai Baba Mandir,Vijay Nagar, Antop Hill,Wadala East Congested Area",19.0286425,72.8718767
477,"FN 479 400037 Himmat Nagar,Sp Road,Near Madina Masjid,Wadala East Congested Area",19.0088678,72.8573828
478,"FN 480 400037 Siddharth Nagar,Koraba Mithagar,Wadala Congested Area",19.0257475,72.8696944
479,"FN 481 400037 Lal Mati, Kismat Nagar,,Wadala Congested Area",19.0257475,72.8696944
480,"FN 482 400037 Bhaiyasaheb Nagar,90Feet Road,Barkat Ali Naka,Wadala East Congested Area",19.0186086,72.8618788
481,"FN 483 400037 Omkar Chawl,Ganesh Nagar,Wadala East Congested Area",19.0190658,72.8690865
482,"FN 484 400037 Chindhi Gully,Near Nurani Masjid,Wadala Congested Area",19.0257475,72.8696944
483,"FN 485 400037 Rajiv Gandhi Nagar,Bpt Railway Line, Gate No. 4,Wadala Congested Area",19.0257475,72.8696944
484,"FN 486 400037 Girdhar Tambe Nagar, Korba Mithagar,B.A.D Road,Wadala East Congested Area",19.0144995,72.8618577
485,"FN 487 400037 Shivshankar Nagar,Jai Bhavani Temple, Wadala (E),Wadala Congested Area",19.0200732,72.8683481
486,"FN 488 400037 Ramdas Chawl, Near Sai Baba Mandir,Antop Hill,Wadala Congested Area",19.0283439,72.869804
487,"FN 489 400037 Kokani Nagar,Jay Maharastra Road,Sion Koliwada,Sion Congested Area",19.0341486,72.8631592
488,"FN 490 400037 Garib Nawaz Nagar,Kokari Agar,Antop Hill Congested Area",19.0347779,72.8700096
489,"FN 491 400037 The Bayagroove, Sai Darshan Bldg.,Smd Road,Near Antop Hill Post Office,Wadala",19.0242035,72.8640254
490,"FN 492 400037 Azad Mohalla,Sp Road,Shanti Nagar, Near Gausiya Masjid,Antop Hill Congested Area",19.0218052,72.8677119
491,"FN 493 400037 Shaikh Misree Marg,Sai Baba Mandir, Vijay Nagar,Antop Hill,Wadala Congested Area",19.0264777,72.866194
492,"FN 494 400037 Motilal Nehru Nagar,Antop Hill,Wadala",19.0304677,72.8700096
493,"FN 495 400037 Chandani Agagar,S. M. Road,Chandani Agagar Congested Area",19.0315426,72.8709697
494,"FN 496 400037 Sangmeshwar Chawl,,Wadala Congested Area",19.0257475,72.8696944
495,"FN 497 400037 Antop Hill Church, Near Shitaladevi Temple, Gtb Nagar, Sion,Navtarun Naik Nagar,Near Shitaladevi Temple, Gtb Nagar,Sion Congested Area",19.0352815,72.8437048
496,"FN 498 400037 Mahatma Gandhi Nagar,Sector 3, Cgs Colony, Near Kane Nagar School,Antop Hill, Wadala Congested Area",19.0308084,72.8622558
497,"FN 499 400037 Basant Mahal,Barakat Ali Road,Wadala",19.0188666,72.8629712
498,"FN 500 400037 Navhind Karauli Mandal,,Wadala Congested Area",19.0257475,72.8696944
499,"FN 501 400037 Barkat Ali Nagar,Dp Road,Wadala (E) Congested Area",19.0185664,72.8676096
500,"FN 502 400037 Kamraj Nagar,Kokari Agar, Sion Koliwada,Sion Congested Area",19.0337354,72.8703788
501,"FN 503 400037 Parn Kuti Housing Society,Gtb Nagar,Sion",19.0357936,72.8655789
502,"FN 504 400037 Ram Nagar Co Op Society,Wadala Cross Road,Wadala",19.0160222,72.8535851
503,"FN 505 400037 Kashusha Sangh No 1,Mahadev Nagar Opp Wadala Fish Market,Wadala Congested Area",19.0175114,72.8546951
504,"FN 506 400037 Bhau Saheb Nagar,Ambekar Marg,Near Temple,Wadala Congested Area",19.0053073,72.8456991
505,"FN 507 400037 Lahan Paigambari Chawl,Antop Hill Sampamnagar,Wadala E Congested Area",19.0144995,72.8618577
506,"FN 508 400037 Wadala Heights Chs,Llyods Estate, Antop Hill,Wadala",19.0144995,72.8618577
507,"FN 509 400037 Chikhalwadi,Near Masalewali Galli,Wadala Congested Area",18.96679,72.8144398
508,"FN 510 400037 Ganesh Nagar,Salt Pan Road,Near Sangam Nagar And Bhole Mandir,Wadala Congested Area",19.023077,72.8725591
509,"FN 511 400037 Din Bandhu Nagar,S P Road,Wadala East Congested Area",19.0216818,72.8684457
510,"FN 512 400037 Ganesh Nagar,Near Vidyalankar College,Wadala Congested Area",19.0218052,72.8677119
511,"FN 513 400037 Kokari Agar, Antop Hill,Wadala",19.0347779,72.8700096
512,"FN 514 400037 Shree Niketan,Ambedkar Road,Sardar Nagar, Antop Hill,Wadala",19.0302319,72.8577005
513,"FN 515 400037 Bpt Railway Line,Bangalipura Lalmati,Wadala Congested Area",19.0257475,72.8696944
514,"FN 516 400037 Jai Maharashtra Nagar,Salt Pan Road,Near Vidyalankar College,Wadala Congested Area",19.0211016,72.8709509
515,"FN 517 400037 Shivshankar Nagar,Salt Pan Road,Near Datta Mandir,Wadala Congested Area",19.0224996,72.8725469
516,"FN 518 400037 Ramamata Wadi,Wadala Police Stn,Wadala Congested Area",19.0152871,72.8636858
517,"FN 519 400037 New Mbpt Colony,Nadkarni Park,Wadala East",19.012747,72.8613887
518,"FN 520 400037 Maratha Chawl Committee,Antop Hill,Wadala Congested Area",19.0283439,72.869804
519,"FN 521 400037 Sangram Nagar,Balli Kirana Store, Antop Hill,Wadala Congested Area",19.0283439,72.869804
520,"FN 522 400037 Panjabi Camp,Antop Hill Church, Gtb Nagar, Sion Koliwada,Sion East",19.0357936,72.8655789
521,"FN 523 400037 Jadeja Building,Sardar Nagar No 4, Near Ravli Hospital,Sion Koliwada,Sion East",19.0354435,72.867408
522,"FN 524 400037 Mhada Transit Camp,Sion Koliwada, Antop Hil,Wadala",19.0304733,72.864585
523,"FN 525 400037 Kopri Agar,Antop Hill,Wadala Congested Area",19.0283439,72.869804
524,"FN 526 400037 Pokhri Nagar,Kamraj Nagar, Near Mariyam Mandir, Antop Hill,Wadala Congested Area",19.0283439,72.869804
525,"FN 527 400037 Naik Nagar,,Pakhari Nagar, Antop Hill, Near Mayur Raj,Wadala Congested Area",19.0283439,72.869804
526,"FN 528 400037 Oprt Office,Antop Hill,Wadala",19.0283439,72.869804
527,"FN 529 400037 Adarsh Nagar,Ganesh Nagar Marg,Near Ambedkar College,Wadala Congested Area",19.0257475,72.8696944
528,"FN 530 400037 Jay Bharat Building,Sion Koliwada, Mhada Colony,Wadala",19.0550666,72.8473015
529,"FN 531 400037 Om Shiv Shakti Chs,Gtb Ngr Sion Koliwada,Wadala",19.0338681,72.8632712
530,"FN 532 400037 Terlochan Society,Gtb Ngr Sion Koliwada,Wadala",19.0403577,72.8644712
531,"FN 533 400037 Adharsh Garkul Chs,Hemnant Majrekar Road,Sardar Nagar No - 4,Wadala",19.0257475,72.8696944
532,"FN 534 400037 Wadala Dest Staff Quarters,Near Wadala Best Bus Depot,Wadala",19.0146029,72.8523709
533,"FN 535 400037 Futnani Bldg,Kidwai Road,Wadala",19.0204278,72.8605959
534,"FN 536 400037 Hill View Society,Smd Road,Antop Hill,Wadala",19.0259233,72.8657406
535,"FN 537 400037 Garib Nawaz Ngr,Near Koliwada, Antophill,Wadala Congested Area",19.0283439,72.869804
536,"FS 538 400012 Mamta Bldg,Jer Bai Wadia Road,Near Bhoiwada,Parel Congested Area",19.0057655,72.8457185
537,"FS 539 400012 Aadhar Blg, Shramik Niwas, Vikrant Sadan,Sane Guruji Marg,Gas Company Lane,Chinchpokli Congested Area",18.9894347,72.8333849
538,"FS 540 400012 Ug Pg Hostel Rooms & Nurses Quarters, Kem Hospital Campus,Dr. E Borges Road,Parel",19.0014532,72.8429332
539,"FS 541 400012 Transit Camp,Shankar Tanaji Ghadi Marg,Behind Suntower,Bhoiwada",19.0048419,72.8460091
540,"FS 542 400012 Pwd Chawl Godown,Road No.39,Annabhau Sathe Nagar,Bhoiwada",19.0048419,72.8460091
541,"FS 543 400012 Itc Grand Hotel,Off Dr. B.A. Road,Parel",18.9981731,72.8388143
542,"FS 544 400012 Javeri House,Dr. Batliwala Road,Parel",19.0034095,72.8401716
543,"FS 545 400012 Bhuvaneshwar Bldg,Dr. Walimbe Marg,Parel",18.9996542,72.8434867
544,"FS 546 400012 Yashwant Bldg.,Dr. S.S.Rao Rd.,Parel Congested Area",18.9964078,72.8403192
545,"FS 547 400012 Batatawala Mansion,Ganesh Gully,Lalbaug Congested Area",18.9939787,72.8368007
546,"FS 548 400012 Amrutvel Chs,Ganesh Galli,Lalbaug",18.9936109,72.8370649
547,"FS 549 400012 Habib Terrace,Dr Baba Saheb Ambedkar Marg,Lalbaug Congested Area",18.9946214,72.836859
548,"FS 550 400012 Best Quaters,V Shantaram Road,Gurudam Kripa Housing Society,Parel",19.004856,72.8382935
549,"FS 551 400012 Mehaboob Chawl,Sewree Cross Road,Sewree Congested Area",19.003839,72.8545641
550,"FS 552 400012 Bharat Nagar,Hindu Smashanbhumi Road,Bhoiwada Congested Area",19.0048419,72.8460091
551,"FS 553 400012 Muthelia Regency,Hakoba Bus Stop,Lalbaug",18.9908177,72.8382547
552,"FS 554 400012 Iqbal Bldg., Maharashtra Guest House,Dr Baba Saheb Ambedkar Marg,Parel",19.0068441,72.8404186
553,"FS 555 400012 Bohari Chwal,N.L.Paralkar Marg,Parel Congested Area",18.9997193,72.8452476
554,"FS 556 400012 New Police Line,G D Ambekar Marg,Parel Congested Area",19.0019282,72.8468615
555,"FS 557 400012 Shipai Chal Society,Inside Kem Hosp Premises,Parel Congested Area",19.0025142,72.8420769
556,"FS 558 400012 Amey Chs,Sane Guruji Marg,Lalbaug,Parel",18.9847131,72.8299869
557,"FS 559 400012 Bhim Nagar,Bai Jer Bai Wadia Road,Bhoiwada,Parel Congested Area",19.0045072,72.8417739
558,"FS 560 400012 Shraddha Building,Jerbai Wadia Road,Parel",19.0055323,72.8412244
559,"FS 561 400012 Bhavna Apartments,Dr Vijay Kumar Walimbe Road,Parel",18.9994335,72.8448332
560,"FS 562 400012 Khoja Kasam Chawl,J Merwanji Street,,Parel Congested Area",19.0027244,72.8406483
561,"FS 563 400012 Ambekar Colony,,Parel",18.9995407,72.8397089
562,"FS 564 400012 Sukhakarta Co-Op Hsg Soc.,,Lalbaug,Parel",18.9908177,72.8382547
563,"FS 565 400012 Dharati Chs.,G.M. Navgare Marg,Parel",18.9995407,72.8397089
564,"FS 566 400012 Wagheshwari Nagar,Sakharam Lanjekar Marg,Near Durgamata Temple,Parel Congested Area",19.0014507,72.8478263
565,"FS 567 400012 Sahakar Darshan Bldg.,N.I. Paralekar Marg,Parel",19.0000691,72.8453341
566,"FS 568 400012 Kalptaru Bldg,S.S. Rao Marg,Lalbaug,Parel",18.9954581,72.8403787
567,"FS 569 400012 Shivlal Chawl (Slum),St. Xavier Street, Bhoiwada,Bhoiwada,Parel Congested Area",19.0061297,72.8445515
568,"FS 570 400012 Kuka Sadan,Dr Baba Saheb Ambedkar Marg,Parel",18.9981731,72.8388143
569,"FS 571 400014 New Transit Camp,Dada Saheb Phalke Road,Gautam Nagar,Dadar",19.0135897,72.8424627
570,"FS 572 400014 Abhishek Chs,Spring Mill,Nr. Naigaon Monorail Stn.,Dadar",19.010989,72.848404
571,"FS 573 400014 Gautam Nagar Bldg, Dr. Dadasaheb Falake Road,Dadar",19.0135897,72.8424627
572,"FS 574 400014 Ahmed Sailor Compd,Opp New Bdd Chawl,Naigaon,Dadar Congested Area",19.0128729,72.8464492
573,"FS 575 400014 New Bdd Chal No. 17,M.J. Phule Road,Naigaon,Dadar",19.010279,72.844909
574,"FS 576 400014 Old Bdd Chawl,Mj Phule Marg,Naigon,Dadar Congested Area",19.0096148,72.8474329
575,"FS 577 400014 Bdd Chawl,Naigaon,Dadar Congested Area",19.0131836,72.8472371
576,"FS 578 400014 Patel Blg.,Hindmata,Dadar Congested Area",19.0102369,72.8423166
577,"FS 579 400014 Kohinoor Mill Copmound Chawl,M.J. Phule Rd,Naigaon,Dadar Congested Area",19.0122704,72.8461639
578,"FS 580 400014 New Bdd Chawl,Naigaon,Dadar Congested Area",19.0083112,72.8444594
579,"FS 581 400014 Niagaon Poilice Head Quarters,Naigaon,Dadar Congested Area",19.0116971,72.8458707
580,"FS 582 400014 Kesar Baug Bldg.,B.J. Devrukhkar Marg,Naigaon,Dadar",19.0094599,72.8461254
581,"FS 583 400014 Shivneri Bldg.,Dadasaheb Phalke Marg,Dadar Congested Area",19.0116153,72.8421781
582,"FS 584 400014 Bhoiwada,Opp. Naigaon Maternity Hosp.,Dadar",19.0106664,72.8468911
583,"FS 585 400014 Ahmed Sailor Compound,Vijay Dwarekar Road,Naigaon, Near Lokseva Rd.,Dadar Congested Area",19.0128729,72.8464492
584,"FS 586 400014 Chawl, Spring Mil Compound,Naigaon,Dadar Congested Area",19.0109822,72.8463784
585,"FS 587 400014 Baithi Chawl,Springmill Compound, Naigaon,Dadar Congested Area",19.0109822,72.8463784
586,"FS 588 400014 Spring Mill Compound,,Naigon,Dadar Congested Area",19.0086082,72.8475966
587,"FS 589 400014 Old Bdd Chawl,Wagh Marg,Off Mj Phule Marg, Naigao,Dadar Congested Area",19.0106664,72.8468911
588,"FS 590 400015 Irani Chawl No 8,Sewree Cross Road,Opp Dr.Khatri Clinic,Sewree Congested Area",19.0057765,72.8547969
589,"FS 591 400015 Bahare Madina,Wadala,Near R A Kidwai Road Police Station,Sewree",19.0047529,72.854239
590,"FS 592 400015 Gtb Hostel, G T B Hospital,Jer Bai Wadia Road,Sewree",19.0049832,72.8520824
591,"FS 593 400015 Hirji Baug Chs,Jer Bai Wadia Road,Sewree",19.0056953,72.8464128
592,"FS 594 400015 Dyaneshwar Nagar Vasahat,Jer Bai Wadia Rd,Sewree",19.0056953,72.8464128
593,"FS 595 400015 Ashok Gardens,Takorsey Jivraj Marg,Swan Mill Compound,Sewree",18.9954087,72.8480582
594,"FS 596 400015 Bhavya Apts,Acharya Donde Marg,Sewree",18.997695,72.8490067
595,"FS 597 400015 Pathan Masjid Compound,Sewree Cross Road,Sewree Congested Area",19.0075453,72.8545958
596,"FS 598 400015 Banubai Chawl No. 5,,Sewree Congested Area",18.9960872,72.8528356
597,"FS 599 400015 Tokarasi Baithi Chawl,Tj Rd,Gopal Baug,Sewree Congested Area",18.9960872,72.8528356
598,"FS 600 400015 Rupji Gandhi Chawl, Gaadi Adda,Near Hanuman Mandir,Sewree Congested Area",18.99505,72.853873
599,"FS 601 400015 Patra Chawl, Nakawachi Wadi,Takorsey Jivraj Marg,Sewree Congested Area",18.9960872,72.8528356
600,"FS 602 400015 Indira Railway Hutments,Haji Bunder Road,Sewree Congested Area",18.988402,72.8564455
601,"FS 603 400015 Global Hospital Nurse Quarters,Takorsey Jivraj Marg,Sewree",18.9960872,72.8528356
602,"FS 604 400015 Shahpunji Palanji Compound,Dr S.S.Rao Road,Sewree Congested Area",18.9990762,72.8416762
603,"FS 605 400015 Rupji Gandhi Chawl,Gaadi Adda,Near Hanuman Mandir,Sewree Congested Area",18.99505,72.853873
604,"FS 606 400015 Sena Nagar Vasahat,Acharya Donde Marg,Sewree Congested Area",18.9984193,72.850831
605,"FS 607 400015 Prabuddh Nagar,Jerbai Wadia Road,Opp. Mamata Bldg.,Sewree Congested Area",19.0056953,72.8464128
606,"FS 608 400015 Hira Seth Chaul,Takorsey Jivraj Marg,Nr. Gopalbaug,Sewree Congested Area",18.9960872,72.8528356
607,"FS 609 400015 Ganesh Baugh,Takorsey Jivraj Marg,Near Maruti Mandir,Sewree Congested Area",18.9960872,72.8528356
608,"FS 610 400015 Bayaa Bai Chawl,Sewri Koliwada, Nr Datta Mandir,Sewree Congested Area",19.0000492,72.8560815
609,"FS 611 400015 Ganesh Nagar Seva Sangh,Acharya Donde Marg,,Sewree Congested Area",19.000835,72.8456267
610,"FS 612 400015 Virchand Niwas,A D Marg,Sewree Congested Area",18.9987317,72.8502094
611,"FS 613 400015 Vitthal Vinayak Sadan,Tokarasi Jivraj Road,Sewree",18.99449,72.849292
612,"FS 614 400015 Baithi Chawl,,Takorsey Jivraj Marg,Sewree Congested Area",18.9960872,72.8528356
613,"FS 615 400015 Ashwamedh Chs,D.G. Mahajani Marg,,Sewree",19.0048988,72.8532565
614,"FS 616 400015 Maruti Keshav Kangutkar Chawl, Sewree Cross Rd.,Near Raza Tower,Sewree Congested Area",19.0021249,72.8542136
615,"FS 617 400015 Hira Seth Chawl,Takorsey Jivraj Marg,Golanji Hill,Sewree Congested Area",19.0014725,72.850267
616,"FS 618 400015 Balwantsingh Punjabi/Bangali Chawl,Takorsey Jivraj Marg,Sewree Congested Area",18.9960872,72.8528356
617,"FS 619 400015 Ganesh Baug,Takorsey Jivraj Marg,Nr. Swan Mill,Sewree Congested Area",18.9943882,72.8486487
618,"FS 620 400015 Nankusheth Chawl,Takorsey Jivraj Marg, Datta Mandir,Near Dosti Flemingo,Sewree Congested Area",18.997695,72.8490067
619,"FS 621 400015 Bmc Chawl,,Sewree Koliwada, Nr. Dattamandir Sewre,Sewree Congested Area",19.001258,72.8545455
620,"FS 622 400015 Shubh Ashirwad Bldg.,Opp. Abhuyday Bank, Sewree Naka,Sewree",18.9984787,72.8512736
621,"FS 623 400015 Adhikari Vasahat, R. A.K. Marg Police Station,Rafi Ahmed Kidwai Marg,Sewree",18.995621,72.8489057
622,"FS 624 400015 Pahelwanbaba Chawl(Slum),Takorsey Jivraj Marg,Sewree Congested Area",18.9960872,72.8528356
623,"FS 625 400015 Jivraj Chawl No.3, (Slum),Takorsey Jivraj Marg,Dattamandir Lane,Sewree Congested Area",18.9960872,72.8528356
624,"FS 626 400031 Rahat Nagar,Sewree Cross Road,Behind Dr.Gada'S Clinic,Wadala Congested Area",19.0132891,72.8548981
625,"FS 627 400031 Municipal Chawl,Sewree Cross Road,Near Railwy Gate No 6,Wadala Congested Area",19.0065153,72.8545613
626,"FS 628 400031 Shivshahi Prakalp, Mhada Building,Near Rak Police Chowkyy,Wadala",19.0132891,72.8548981
627,"FS 629 400031 Madhav Nagar, R.A. Kidwai Road, Opp. Hari Masjid,Wadala",19.0160207,72.8588041
628,"FS 630 400033 Bdlb Colony,Shrikant Hadkar Marg,Kalachowky,Kalachowky",18.9879253,72.8434242
629,"FS 631 400033 Vineet Nagar,,Kalachowky",18.9901964,72.8430551
630,"FS 632 400033 Abhudyay Nagar,,Kalachowky",18.9901964,72.8430551
631,"FS 633 400033 Parshuram Nagar,G D Ambekar Marg,Kalachowky Congested Area",18.9929396,72.8437734
632,"FS 634 400033 Jijamata Nagar,D Ambedkr Marg,Kalachowki Congested Area",18.9894259,72.8411621
633,"FS 635 400033 Sita Sadan, Dattaram Laad Marg,Klachowky Congested Area",18.9885828,72.837435
634,"FS 636 400033 Jijamata Nagar,Ambedkar Marg,Shubechha,Klachowky Congested Area",18.9856333,72.8441629
635,"FS 637 400033 Mangalmurti Chs, Dattaram Lad Marg,Kalachouki",18.9882057,72.8386525
636,"FS 638 400033 Vighnaharta Bldg.,G.D. Ambekar Marg,Kalachouki",18.9890809,72.8413443
637,"FS 639 400033 New Police Line,,Kalachouki Congested Area",18.9901964,72.8430551
638,"FS 640 400033 New Police Officer Quarters,,Kalachouki",18.9901964,72.8430551
639,"FS 641 400033 Ishwati Prasad Bldg.,Dattaram Lad Marg,Kalachowki",18.9881898,72.8389303
640,"FS 642 400033 Nuji Marwadi Chawl,G D Ambedkar Marg,Kalachowki Congested Area",,
641,"FS 643 400033 Chawl Behind Bldg. 11A, Abhyday Nagar,,Kalachowki Congested Area",18.99064,72.84258
642,"FS 644 400033 N M Wadia Wefare Seva Sangh,Shrikant Hadkar Marg,Kalachowki",18.9879253,72.8434242
643,"FS 645 400033 Deepak Jyoti Tower,Parel Tank Road,Kalachowki",18.993294,72.8419122
644,"GN 646 400014 Gokuldham,Goutam Nagar,Dada Saheb Phalke,Dadar Congested Area",19.0147962,72.8454534
645,"GN 647 400016 Navin Mahim Police Vasahat,,Mahim",19.0422001,72.8391157
646,"GN 648 400016 Razzak Manzil,Lj Road,Mahim Congested Area",19.0406592,72.8407851
647,"GN 649 400016 Noorani Bdlg,Cadel Rd,Mahim",19.041281,72.8383973
648,"GN 650 400016 Sagar Darshan, D Wing 604,Near Swami Vivekanand Garden,Mahim",19.0462065,72.8392818
649,"GN 651 400016 Mahim Killa Compound,Fort Rd,Near Mahim Police Stn,Mahim Congested Area",19.0422001,72.8391157
650,"GN 652 400016 Rose Blossom Society,Shitladevi Temple Rd,Near Ram Madir,Mahim",19.0357413,72.8407241
651,"GN 653 400016 Municipal Patra Marg,Hinduja Hospital Road,Near Hinduja Hospital,Mahim",19.0335001,72.838349
652,"GN 654 400016 Mahalaxmi Chs,Manmala Tank,Star City Cinema,Mahim",19.0279193,72.8434804
653,"GN 655 400016 Pension Chawl,4Th Road,Opp Mahim Police Stn,Mahim Congested Area",19.0422001,72.8391157
654,"GN 656 400016 Gurudutta Soc,Causeway Road,Ramgad,Mahim",19.0482894,72.8383014
655,"GN 657 400016 Indira Nagar Pipeline,Mahim West,Mahim",19.0461138,72.8395333
656,"GN 658 400016 Zopadpatty,Near Arfa Hotel,Azad Nagar Mahim Patak,Mahim Congested Area",19.0389455,72.8420546
657,"GN 659 400016 Naya Nagar,Opp Raheja Hosp,Mahim Congested Area",19.0462839,72.8426792
658,"GN 660 400016 Kashinath Building,Cadell Road,Mahim",19.0409124,72.8401483
659,"GN 661 400016 Makhdoomya Nagar Society,Causeway Road,Behind Mahim Bus Depo,Mahim West",19.0389455,72.8420546
660,"GN 662 400016 7 Carol Mansion,Shitbadevi Road,Mahim",19.0351315,72.8442358
661,"GN 663 400016 S.P. Kawaliwadi,L.J. Road,Mahim Congested Area",19.0334783,72.8422859
662,"GN 664 400016 Atmaram Building,Balamia Road,Mahim,West",19.0398879,72.8402695
663,"GN 665 400016 Fisherman Colony,Shiv Shakti Nagar,Opp Building No 10,Mahim Congested Area",19.046729,72.8408395
664,"GN 666 400016 Mrudulgachary Koli Nagar, Kolinagar Housing Society,Mahim Causeway Road,Behind Mahim Bus Stop,Mahim Congested Area",19.043018,72.840562
665,"GN 667 400016 Akashwadi,Mahim East,Mahim Congested Area",19.0386825,72.8490338
666,"GN 668 400016 Janta Sevak Society,Main Road,Mahim West",19.0389455,72.8420546
667,"GN 669 400016 M N Chs,,Mahim",19.0293424,72.8422824
668,"GN 670 400016 Utpal Road,Sitla Devi Temple Road,Near Rang Udyan Mahim,Mahim Congested Area",19.0361967,72.8449877
669,"GN 671 400016 Rizvi Hights,Pitamber Lane,Behind Paradise Theatre,Mahim",19.0379326,72.8430361
670,"GN 672 400016 Mahim Fisher Man Colony,S L Raheja Marg,Mahim",19.0462839,72.8426792
671,"GN 673 400016 Gabriel House Road,Behind Paradise Cenema,Mahim Congested Area",19.0371941,72.8425134
672,"GN 674 400016 Shri Brahmadev Chs,P T Road,Mahim",19.0389455,72.8420546
673,"GN 675 400016 Mahim Fireman Colony,Near Vivekanand Garden Chowk,Mahim Congested Area",19.0432232,72.8424697
674,"GN 676 400016 Dev Aarti Apartment Chs,,Mahim",19.0361246,72.8454667
675,"GN 677 400016 Sagar Sanidhya Rahivasi Sangh,Causeway Road,Mahim",19.047023,72.8393903
676,"GN 678 400016 1St Floor Mahim Old Police Colony,,Mahim",19.0476583,72.8430551
677,"GN 679 400016 Chawl No.04,Mahim Causeway Road,Near Swami Vivekanad,Mahim Congested Area",19.045775,72.8389803
678,"GN 680 400016 New Girgaonkar Wadi,S T Road,Mahim West Congested Area",19.0348692,72.8445321
679,"GN 681 400016 Central Railway Colony,Azad Nagar Matunga,Matunga",19.1268998,72.8376982
680,"GN 682 400016 Amirani Mansion,M M C Road,Opp. Tarzan Bar,Mahim West",19.0396848,72.8461677
681,"GN 683 400016 Solitair Building,,Mahim West",19.0389455,72.8420546
682,"GN 684 400016 Sumeet Sadan,,Mahim",19.0367931,72.8436942
683,"GN 685 400016 Woodworks,Causeway Road,Near Hero Honda Showroom,Mahim",19.0429571,72.8402219
684,"GN 686 400016 Waitriwadi,Mari Road,St. Micheal Church,Mahim West Congested Area",19.0427807,72.8407732
685,"GN 687 400016 Lungiwala Chawl,S Vs Marg,Mahim West Congested Area",19.0389455,72.8420546
686,"GN 688 400016 Ambika Bhuwan,Wadia Stree,Mahim West",19.0389455,72.8420546
687,"GN 689 400016 R R V Mansion Chs Ltd,L J Road,Mahim West",19.0317192,72.8408256
688,"GN 690 400017 Shakti Chawl, Mukund Nagar, Dambavi Company,Dharavi Congested Area",,
689,"GN 691 400017 Moulana Azad Nagar,Jasmin Road,Dharavi",19.0434327,72.8584151
690,"GN 692 400017 Janta Society,Opp Abhudaya Bank,Dharavi Congested Area",19.0436389,72.8499579
691,"GN 693 400017 Sion Social Nagar,M.G Road,Near Mariamma Mandir,Abjuman Gausiya Line,Dharavi Congested Area",19.0430421,72.8605943
692,"GN 694 400017 Muslim Nagar,60 Ft Road,Near Gusiya Masjid,Dharavi Congested Area",19.0384132,72.8531484
693,"GN 695 400017 Mukund Nagar,Near Ongc,Dharavi Congested Area",19.0480303,72.8585203
694,"GN 696 400017 Veer Lahuji Vasahat Rahiwasi Sangh,Near Taj Hotel,Dharavi Congested Area",19.0455916,72.8537063
695,"GN 697 400017 Muslim Nagar,Near Bismilla Hotel,Near 90 Feet Road,Dharavi Congested Area",19.0467508,72.8601312
696,"GN 698 400017 Ganesh Chawl,Near Hotel Priyanka,Next To Mukund Nagar,Dharavi",19.0480303,72.8585203
697,"GN 699 400017 Nityanand Society,Mukund Nagar,Sion Bandra Link Road,Dharavi Congested Area",19.0485395,72.8544518
698,"GN 700 400017 Sanjay Chawl Society,Behind Municipal School,Dharavi",19.0428757,72.8596033
699,"GN 701 400017 Som Complex,Shashtri Nagar Municipal School,Dharavi",19.0463588,72.85602
700,"GN 702 400017 Kasarwadi Municipal Chawl,Shivaji Park,Dadar West Congested Area",19.0462117,72.8617868
701,"GN 703 400017 Janata Chs$$Gn1807990210000$$Janata Chs,60 Feet Road,Shammi Nagar,Dharavi,Mumbai-400017$$G/N,,Dharavi Congested Area",19.0418789,72.8495729
702,"GN 704 400017 Naik Nagar Saibaba Gali,Lbs Marg,Dharavi Congested Area",19.0542017,72.868179
703,"GN 705 400017 Netaji Building, Kalyanwadi,,Dharavi",19.0455916,72.8537063
704,"GN 706 400017 Mahatma Gandhi Chawl Social Nagar,90 Feet Rd,Nuridha Masjid,Dharavi Congested Area",19.045811,72.861671
705,"GN 707 400017 Prakash Nagar,,Mahim W",19.0329419,72.8450377
706,"GN 708 400017 Kalyanwadi,,Dharavi Congested Area",19.0455916,72.8537063
707,"GN 709 400017 Kunchi Karve Nagar,60 Ft Road,Dharavi Congested Area",19.0392073,72.8519556
708,"GN 710 400017 Kumbharwada, Dekdji Masjid, Laxmi Chawl,,Dharavi Congested Area",19.0404056,72.8540754
709,"GN 711 400017 Shiv Shakti Nagar, New Municipal Chawl,Cross Rd,Dharavi Congested Area",19.0462117,72.8617868
710,"GN 712 400017 Punwala Chawl,Main Rd,Kalyanwadi,Dharavi Congested Area",19.0391258,72.8497496
711,"GN 713 400017 Akg Ngr,60 Feet Rd,Near Usmaniya Hotel,Dharavi Congested Area",19.040483,72.851117
712,"GN 714 400017 Shiv Shakti Nagar,Dhorwada,Santkakay Marg,Dharavi Congested Area",19.0455916,72.8537063
713,"GN 715 400017 Sanaullah Compound, Sion Mahim Link Rd,Opp To Dillar Hotel,Dharavi Congested Area",19.0455916,72.8537063
714,"GN 716 400017 Shahid Bhagat Singh Nagar Kumbharwada,,Dharavi Congested Area",,
715,"GN 717 400017 Lokmanya Tilak Nagar,Dharavi Cross Road,Dharavi, Mumbai Congested Area",19.0425948,72.8533025
716,"GN 718 400017 Mukund Nagar, A-Ward,Dharavi Main Road,Dharavi Congested Area",19.0446558,72.852176
717,"GN 719 400017 Padma Gopal Vilas Chawl,,Dharavi Congested Area",19.0455916,72.8537063
718,"GN 720 400017 Basweshwar Ngr,Dharavi Cross Rd,Dharavi Congested Area",19.0425948,72.8533025
719,"GN 721 400017 Manzi Wadi Gopal Mistri Compd,Cross Rd,Dharavi Congested Area",19.0455916,72.8537063
720,"GN 722 400017 Ujala Chawl Committee,Gopinath Colony,Inda Qureshi Nagar,Dharavi Congested Area",19.0453239,72.8571943
721,"GN 723 400017 Abbu Bakar Chawl,Bagicha Compound,Dharavi Congested Area",19.0443514,72.8519402
722,"GN 724 400017 Samadhan Chs,Dhorwada,Dharavi",21.2976289,79.7820394
723,"GN 725 400017 Bhimjimamji Chawl,Kapad Bazar, Congested Area",19.0455916,72.8537063
724,"GN 726 400017 Sankraman Shibir,Transit Camp,Dharavi Congested Area",19.0418807,72.857825
725,"GN 727 400017 Municipality School,Near Dharavai Police Chowki,Dharavi Congested Area",19.0467736,72.8519883
726,"GN 728 400017 United Residency,Sant Rohidas Marg,Kalakilla,Dharavi",19.0478061,72.8597617
727,"GN 729 400017 Indira Nagar,90 Feet Rd,Dharavi Congested Area",19.0447854,72.8585484
728,"GN 730 400017 Narsingh Chawl,Dharavi Cross Rd,Dharavi Congested Area",19.0425948,72.8533025
729,"GN 731 400017 Madina Nagar,Kutti Wadi, 60 Ft Rd,Dharavi Congested Area",19.0410725,72.8504077
730,"GN 732 400017 Ajmeri Chawl,Tekda Masjid,Dharavi Congested Area",19.043521,72.8508209
731,"GN 733 400017 V K Wadi, Z Patti,T Junction,Dharavi Congested Area",19.0476725,72.852701
732,"GN 734 400017 Mahinm Patak Azad Nagar,Z Patti,Dharavi Congested Area",19.0455916,72.8537063
733,"GN 735 400017 Manju Wadi,Kakkaya Marg,Ganesh /Mandir Marg,Dharavi Congested Area",19.0422198,72.8527491
734,"GN 736 400017 Cozy Shelter,Cross Rd,Dharavi Congested Area",19.0427614,72.8522172
735,"GN 737 400017 Kumbhar Wada,Sant Gora Kumbhar Marg,Near 11 Heights Soc,Dharavi",19.0376949,72.8552384
736,"GN 738 400017 Satekarya Chawl,Mukund Nagar,Holi Maidan,Dharavi Congested Area",19.0468834,72.8551942
737,"GN 739 400017 Meena Tai Soc,Kalyanwadi,Dharavi,Dharavi Congested Area",19.0455916,72.8537063
738,"GN 740 400017 Phule Chawl,90 Ft Rd,Dharavi Congested Area",19.0430343,72.8570919
739,"GN 741 400017 Chamda Bazar,Dhravi Main Road,Dharavi Congested Area",19.0445293,72.852254
740,"GN 742 400017 Sai Baba Nagar,90 Ft Rd,Near Hussainiya Masjid,Dharavi Congested Area",19.043219,72.8584863
741,"GN 743 400017 Gangadhar Chawl,Behind Sion Railway Quarters,Sion,Dharavi Congested Area",19.0478096,72.86493
742,"GN 744 400017 Azad Nagar,Mahim Phatak,Dharavi Congested Area",19.0432024,72.8488774
743,"GN 745 400017 Green Palace Gajanan House,Near Shastri Nagar Rd,Dharavi",19.0455916,72.8537063
744,"GN 746 400017 Janta Nagar, M M Bdlg,Laxmi Baug,Shivar Guest House,Dharavi",19.046123,72.8622804
745,"GN 747 400017 Gopinath Colony,Khambadevi Road,Near Church,Dharavi Congested Area",19.0460447,72.8587653
746,"GN 748 400017 Banwari Compound,Sion Mahim Link Rd,Kemkar Chowk,Dharavi Congested Area",19.045967,72.843058
747,"GN 749 400017 Koliwada,Sant Kakkaya Marg,Koliwada,Dharavi Congested Area",19.0441167,72.8544509
748,"GN 750 400017 Uday Bdlg,60 Ft Rd,Dharavi",19.0410725,72.8504077
749,"GN 751 400017 Pradise Residency,Dharavi Cross Road,Dharavi",19.0425948,72.8533025
750,"GN 752 400017 Dharavi Police Station,90 Feet Road,Dharavi",19.0431287,72.8573624
751,"GN 753 400017 Shiv Shakti Nagar,Dharavi Cross Road,Dharavi Congested Area",19.0425948,72.8533025
752,"GN 754 400017 Palakar Chawl,Charawi Cross Road,Dharavi Congested Area",19.0425948,72.8533025
753,"GN 755 400017 Kamla Nehru Nagar,90 Feet Road,Opp. Kamraj School,Dharavi",19.0419158,72.8553445
754,"GN 756 400017 Bhartiya Chawl,Dhorwada Road,M P Nagar,Dharavi Congested Area",19.0456311,72.8566745
755,"GN 757 400017 Magal Wadi,Dharavi Road,Dharavi Congested Area",19.051833,72.8610851
756,"GN 758 400017 Satabdi Tower, Pmgp Colony,Loop Raod,Shatabdi Tower,Dharavi",19.0504077,72.8625472
757,"GN 759 400017 Shatabdi Nagar, E Galli,Loop Road,Dharavi Congested Area",19.0427358,72.8586983
758,"GN 760 400017 Abu Bakhar Chawl,Dharavi Main Road,Chamda Bazar,Dharavi Congested Area",19.0448081,72.8524473
759,"GN 761 400017 Social Nagar,Machchi Galli,Zpatti,90 Ft Road,Near Usmani Masjid,Dharavi Congested Area",19.0447854,72.8585484
760,"GN 762 400017 New Bharat Janata Chs,Indira Nagar,60 Ft Road,Dharavi",19.0455916,72.8537063
761,"GN 763 400017 Vijay Nagar,Transit Camp,M G Road,Tata Power House,Dharavi Congested Area",19.0455916,72.8537063
762,"GN 764 400017 Rajeev Gandhi Chawl,Dharavi Main Road,Madina Compound,Kalyanwadi,Dharavi Congested Area",19.0446558,72.852176
763,"GN 765 400017 Akashwadi,Dharavi Cross Rd,Near Ganesh Mandir,Dharavi Congested Area",19.0425948,72.8533025
764,"GN 766 400017 Subhash Nagar Chs,Sant Gora Kumbhar Marg,Kumbharwada,Dharavi",19.037742,72.855509
765,"GN 767 400017 New Gandhi Chawl,M.G. Road,Social Nagar,Dharavi Congested Area",19.0827261,72.9047882
766,"GN 768 400017 Dharavi Mumbai,,Dhravi Congested Area",19.0455916,72.8537063
767,"GN 769 400017 Deulgaon Raje Teh Daund,,Dharavi Congested Area",19.0455916,72.8537063
768,"GN 770 400017 Rajiv Gandhi Nagar,Transist Camp,Dharavi",19.0418807,72.857825
769,"GN 771 400017 Santosh Chawl, Kunchi Karve Nagar,60 Ft Road,Dharavi Congested Area",19.0392073,72.8519556
770,"GN 772 400017 Rajiv Gandhi Sports Complex,,Dharavi",19.0491892,72.8573994
771,"GN 773 400017 Laxmi Chawl Committee,Room Noo.223,Indira Qurishi Nagar,Dharavi Congested Area",19.0404056,72.8540754
772,"GN 774 400017 Transist Camp,,Dharavi",19.0418807,72.857825
773,"GN 775 400017 Mahrashtra Nagar Chs,90 Feet Road,Dharvi Congested Area",19.0430343,72.8570919
774,"GN 776 400017 Venketeshwar Chawl,Anna Nagar,Kumbharwadi,Dharavi Congested Area",19.0404412,72.8537663
775,"GN 777 400017 Meena Plastic Chawl,Azad Nagar,Khaifer Hotel,Dharavi Congested Area",19.0455916,72.8537063
776,"GN 778 400017 Chal No262,Kalyanwadi,Dharavi Congested Area",19.0455916,72.8537063
777,"GN 779 400017 Msaiyah Bldg,Islampura Society,90 Ft Road,Dharavi Congested Area",19.0430343,72.8570919
778,"GN 780 400017 Gautam Chawl Shiv Shakti Nagar,Cross Road,Dharavi Congested Area",19.0425948,72.8533025
779,"GN 781 400017 Keshav Akkar Chawl,Piwla Bunglow,Koliwada,Dharavi Congested Area",19.0474708,72.8542056
780,"GN 782 400017 Rajeev Gandhi Chawl,Maharana Pratapnagar,Cross Road,Dhorwada,Dharavi Congested Area",19.0425948,72.8533025
781,"GN 783 400017 Tagor Ara Chs,Anna Nagar,Kumbharwada,Dharavi",,
782,"GN 784 400017 Subhall Nagar,Labour Camp,,Dharavi",19.0370086,72.8519172
783,"GN 785 400017 Pmgp Colony,Near Dharavi Bus Stop,Dharavi",19.0508525,72.8615174
784,"GN 786 400017 Kamraj Memorial Chawl, Subhash Nagar,90 Ft Road,Dharavi",19.0422367,72.8566568
785,"GN 787 400017 Indra Nagar,Latur Galli,90 Ft Road,New Police Station,Dharavi",19.0431287,72.8573624
786,"GN 788 400017 Matoshri Chs, Basweshwar Nagar,,Dharavi",19.0442268,72.8553087
787,"GN 789 400017 Jaydeep Chs, Mukund Nagar, A Ward,Cross Road,Dharavi",19.0425948,72.8533025
788,"GN 790 400017 New Chawl, Subhash Nagar,Kumbharwada,Dharavi Congested Area",,
789,"GN 791 400017 Satkarya Chawl,Cross Road,Dharavi Congested Area",19.0425948,72.8533025
790,"GN 792 400017 Suthar Chawl,Kunchikarwe Nagar,Kumbharwada,Dharavi Congested Area",18.9498237,72.8330318
791,"GN 793 400017 Kamala Nagar,Jasmine Mill Road,Dharavi Congested Area",19.0409789,72.8491005
792,"GN 794 400017 Balaji Nagar,90 Ft Road,Dharavi",19.0430343,72.8570919
793,"GN 795 400017 New Chawl, Subhash Nagar,Kumbharwada,Dharavi Congested Area",,
794,"GN 796 400017 Bharat Chawl,Kunchikurve Nagar,60 Ft Road,Kumbharwada,Dharavi Congested Area",19.0390894,72.8547778
795,"GN 797 400017 Jay Bhavani Building,Sion Bandra Link Road,Dharavi",19.0452894,72.864487
796,"GN 798 400017 Agashwadi,Cross Road,Opp. Ganesh Mandir,Dharavi Congested Area",19.0425948,72.8533025
797,"GN 799 400017 Menity Chawl,,Dharavi Congested Area",19.0455916,72.8537063
798,"GN 800 400017 Hanuman Chawl,,Dharavi Congested Area",19.0455916,72.8537063
799,"GN 801 400017 Dharavi Main Road,60 Feet Road,Opp Maharshtra Hotel,Dharavi Congested Area",19.0437076,72.8486494
800,"GN 802 400017 New Ganpati Chawl, Social Nagar,M.G. Road,Dharavi Congested Area",19.0430421,72.8605943
801,"GN 803 400017 Mariyam Chawl,Maharna Pratap Nagar,Dhorwada,Dharavi Congested Area",19.0455916,72.8537063
802,"GN 804 400017 Rajeev Gandhi Nagar,Behind Latur Galli,Dharavi Congested Area",19.0411624,72.857825
803,"GN 805 400017 Gopal Mistri Chawl,Nawab Nagar,Dharavi Congested Area",19.0455916,72.8537063
804,"GN 806 400017 Mehboob Subhanu Masjid Nagar,90 Ft Road,Dharavi Congested Area",19.0430343,72.8570919
805,"GN 807 400017 Shanti Building,90 Ft Road,Social Nagar,Dharavi Congested Area",19.0458542,72.8598073
806,"GN 808 400017 Shankar Kawade Chawl,Cross Road,Dharavi Congested Area",19.0425948,72.8533025
807,"GN 809 400017 Shivneri, Indira Nagar,,Dharavi Congested Area",19.043458,72.859302
808,"GN 810 400017 Rajeev Gandhi Building,90Ft Road,Kumbharwada,Dharavi",19.0430343,72.8570919
809,"GN 811 400017 Ambedkar Chawl,Sant Kabir Marg, 60Ft Road,Dharavi Congested Area",19.1063419,72.8281825
810,"GN 812 400017 Pradnya Buddha Vihar,Mukund Nagar,Dharavi",,
811,"GN 813 400017 Navrang Society,M.P. Nagar,Dhorwada,Dharavi",19.045615,72.8580667
812,"GN 814 400017 Mahatma Gandhi Chs,T Juntion,Dharavi",19.0471726,72.8527352
813,"GN 815 400017 Sachin Building,Cross Road,Near Ganesh Mandir,Dharavi",19.0428871,72.8518019
814,"GN 816 400017 Mabin Nagar Chs,Kunchikurve Nagar,60 Feet Road,Dharavi",19.0410725,72.8504077
815,"GN 817 400017 Rajiv Darshan Chs,Pmgp Road,Dharavi",19.0508525,72.8615174
816,"GN 818 400017 Ganga Building,Mukund Nagar,Dharavi",,
817,"GN 819 400017 Dmgp Colony,Near Dharavi Depot,Dharavi",19.0455916,72.8537063
818,"GN 820 400017 Sion Depot,Rajiv Gandhi Nagar,Dharavi Congested Area",19.0411624,72.857825
819,"GN 821 400017 E/12,Shahu Nagar,Near Police Station,Dharavi Mahim East Congested Area",19.0371887,72.8491063
820,"GN 822 400017 Gandhi Nagar Chs,Sant Kakaya Marg,Dharavi Cross Road,Dharavi",19.042879,72.8539249
821,"GN 823 400017 Siddhivinayak Building,90 Feet Road,Near Kamraj School,Dharavi",19.0419158,72.8553445
822,"GN 824 400017 Kumbharwada Walkat Chawl,,Dharavi Congested Area",19.037499,72.854877
823,"GN 825 400017 Samudra Darshan Building,Buddha Galli No.02,Behind Jay Ambe,Dharavi",19.0455916,72.8537063
824,"GN 826 400017 Lal Gangadhar Chawl,Near Nageshwar Mandir,Dharavi Congested Area",19.0455916,72.8537063
825,"GN 827 400017 Shastri Nagar,,Dharavi Congested Area",19.0461029,72.8561273
826,"GN 828 400017 Maruti Chawl,Rajiv Gandhi Nagar,Dharavi Congested Area",19.0411624,72.857825
827,"GN 829 400017 Kalpataru Chs,Sant Rohidas Marg,Dharavi",19.0473007,72.8591142
828,"GN 830 400017 Ongc Building,Rajiv Gandhi Nagar,Near Export Complex,Dharavi",19.0411624,72.857825
829,"GN 831 400017 Madina Chawl,Madina Chawl,Joglekar Nala Mukund Nagar,Dharavi Congested Area",19.0480303,72.8585203
830,"GN 832 400017 Shobhadas Chawl,Sant Rohidas Marg,Dharavi Congested Area",19.0481529,72.8594238
831,"GN 833 400017 S Jyoti Chawl,Social Nagar,Near Ayyappa,Dharavi Congested Area",19.0430421,72.8605943
832,"GN 834 400017 New Nehru Nagar,90 Feet Road,Dharavi Congested Area",19.0430343,72.8570919
833,"GN 835 400017 Reva Fort Colony,Kurla Killa,Dharavi",19.0455916,72.8537063
834,"GN 836 400017 Sai Baba Chawl,Main Road,Near Abhay Building,Dharavi Congested Area",19.0455916,72.8537063
835,"GN 837 400017 Vinayak Chs,Balaji Nagar,Near Kamraj School,Dharavi",19.0419158,72.8553445
836,"GN 838 400017 Fatema Chawl,Sion Bandra Link Road,Near Pill Bunglow,Dharavi Congested Area",19.0485395,72.8544518
837,"GN 839 400017 Nabi Nagar Society,Goret Road,Dharavi",19.0455916,72.8537063
838,"GN 840 400017 Ambika Kather Work,Shastri Nagar,Dharavi",19.0461029,72.8561273
839,"GN 841 400017 Janseva Society,Muslim Nagar,90 Feet Road,Dharavi",19.0404223,72.8551682
840,"GN 842 400017 Jeevan Jyoti Rahimasi Sangh,Tata Power,Dharavi",19.03571,72.854307
841,"GN 843 400017 Anwer Chawl,Kutti Wadi,Dharavi Congested Area",19.0430852,72.8572712
842,"GN 844 400017 Indira Nagar Zopadpatti,Lahir Galli,Dharavi Congested Area",19.043458,72.859302
843,"GN 845 400017 Sangam Galli,Kanda Nagar,Dharavi Congested Area",19.0467671,72.8606023
844,"GN 846 400017 Shri Sant Rohidas Society,H P Nagar,Dharavi",19.0481529,72.8594238
845,"GN 847 400017 Poorandas Hirandas Chawl,Shri Shankar Nagar,V K Krishnan Marg 90 Feet Road,Dharavi Congested Area",,
846,"GN 848 400017 S Ganga Mulund Nagar,,Dharavi Congested Area",19.0455916,72.8537063
847,"GN 849 400017 Star English School,Dharavi Police Station,Dharavi",19.0476401,72.8610844
848,"GN 850 400017 Babushwar Nagar,Dhorwada Sawant,Kaikaya Marg,Dharavi Congested Area",19.0455916,72.8537063
849,"GN 851 400017 Kamraj High School,Near Dharavi Police Station,Dharavi Congested Area",19.0419158,72.8553445
850,"GN 852 400017 Cambridge High School,,Dharavi Congested Area",19.0455916,72.8537063
851,"GN 853 400017 Indira Nagar Tekda Masjid,,Dharavi Congested Area",19.0404867,72.8541425
852,"GN 854 400017 Behind Pilla Bunglow,,Dharavi Congested Area",19.047769,72.8557711
853,"GN 855 400017 Chatrapati Shivaji Chawl,90 Feet Road,Behind Venus Hotel,Dharavi Congested Area",19.0430343,72.8570919
854,"GN 856 400017 Nav Jeevan Chs,Anna Nagar,Opp. Ambedkar School,Dharavi",19.0443762,72.8543913
855,"GN 857 400017 Shama Chs,90 Feet Road,Dharavi Congested Area",19.0399835,72.8540543
856,"GN 858 400017 Office Sb Chawl,Dharavi Road,Dharavi Congested Area",19.051833,72.8610851
857,"GN 859 400017 Budd Vihar,Sant Vikar Marg,Ganesh Chowk,Dharavi Congested Area",19.0455916,72.8537063
858,"GN 860 400017 Sannaullah Compound,S. T. D Galli,Dharavi",19.0427358,72.8586983
859,"GN 861 400017 Goodsheard Chs,Behind Old Police Station,Dharavi",19.0431287,72.8573624
860,"GN 862 400017 Sabrinabai Chawl,Behind Dharavi Old Post Office,Dharavi Congested Area",19.0455145,72.8535363
861,"GN 863 400017 Shiv Shankar Nagar,90 Feet Road,Dharavi Congested Area",19.0430343,72.8570919
862,"GN 864 400017 Nilkamal Building,60 Feet Road,Dharavi",19.0387424,72.8530367
863,"GN 865 400017 Jall Compound,Mahim Dharavi Main Road,Dharavi",19.0446558,72.852176
864,"GN 866 400017 The Indra Vilas Tenants Asso.,Sant Rohidas Marg,Dharavi",19.0481529,72.8594238
865,"GN 867 400017 Kalyani Building,60 Feet Road,Matunga Labour Camp,Dharavi",19.0389214,72.8522596
866,"GN 868 400017 New Siddharth Chawl,Good Shefer Church,Dharavi Congested Area",19.0448484,72.8537419
867,"GN 869 400017 Jyoti Chs,Social Nagar,Dharavi",,
868,"GN 870 400017 Budhay Chs,60 Feet Road,Dharavi",19.0410725,72.8504077
869,"GN 871 400017 Y Juntion,Mukund Nagar,Dharavi Congested Area",,
870,"GN 872 400017 Shona,,Dharavi",19.0455916,72.8537063
871,"GN 873 400017 ,Dharavi Congested Area",19.0455916,72.8537063
872,"GN 874 400017 Samta Rahivasi Sangh,Sant Rohidas Marg,Dharavi Congested Area",19.0481529,72.8594238
873,"GN 875 400017 Sagar Chs Transient Camp,90 Ft Road, Near Dharav I Police Station,Dharavi",19.0431287,72.8573624
874,"GN 876 400017 90 Feet Road,Near Khekada Majjid,Dharavi Congested Area",19.0430343,72.8570919
875,"GN 877 400017 Naiganda Chs,Ganesh Galli,Mukund Nagar,Dharavi",19.0427358,72.8586983
876,"GN 878 400017 Maharashtra Building,60 Ft Road,Dharavi",19.0410725,72.8504077
877,"GN 879 400017 Sathgaon Post Shenve,Shahapur Police Station,Dharavi Congested Area",19.0431287,72.8573624
878,"GN 880 400017 Indira Nagar, Sant Kakaya Marg Cross Road,Dharavi Congested Area",19.0419726,72.8550315
879,"GN 881 400019 Matunga Labour Camp, Uday Society,60 Feet Road,Matunga",19.0388517,72.852685
880,"GN 882 400019 Matunga Labour Camp,Om Prakash Bekri,Matunga",19.0389785,72.8507267
881,"GN 883 400019 Dev Darshan Bdlg,H T Katariya Road,Front Of Poddar Kids School,Matunga",19.0316732,72.8428045
882,"GN 884 400019 M L Compound, B Ward,Near Sharda Hotel,Matunga Congested Area",19.0266948,72.8508648
883,"GN 885 400019 Padmashali Co Op Soc, R P Nagar,60 Ft Rd,Matunga",19.0395483,72.8512729
884,"GN 886 400019 Matunga Labour Camp,Ambedkar Rd,Walmiki Nagar,Matunga Congested Area",19.007344,72.8412211
885,"GN 887 400019 Tata Housing Colony,Ambedkar Marg,Near Labour Camp,Matunga,West",19.0370086,72.8519172
886,"GN 888 400019 Siddharth Nagar,Ramabai Road,Near Anganwadi,Matunga,West Congested Area",19.0269012,72.8553773
887,"GN 889 400019 Matunga Labour Camp,Jasmin Hill Road,Fishmarket,Matunga East Congested Area",19.0370086,72.8519172
888,"GN 890 400019 United Indor Chs,Matunga Labour Camp,Matunga",19.0370086,72.8519172
889,"GN 891 400019 Pali Ratan Building,Shankar Nathan Road,Matunga East",19.0269012,72.8553773
890,"GN 892 400019 Mamta Building,Near Asarafiya Jama Masjid,Matunga",19.0371807,72.8501863
891,"GN 893 400025 Paschim Apartment,K N D Marg,Opp. Kirti Collage,Dadar Congested Area",19.0213252,72.8310621
892,"GN 894 400028 Dadar Police Vasahat Bdlg,Gokhale Road,Dadar",19.014358,72.835562
893,"GN 895 400028 Agar Bazar,Kaitochi Chawl,,Dadar Congested Area",19.0185905,72.831977
894,"GN 896 400028 Haji Ebrahim Patel Bdlg,Gokhale Rd,Dadar",19.0167856,72.8351458
895,"GN 897 400028 Ramabai Nagar,Andra Valley Road,Labour Camp,Matunga Congested Area",19.0217224,72.837479
896,"GN 898 400028 Matunga Labour Camp,60 Ft Road,Labour Camp,Matunga Congested Area",19.0389214,72.8522596
897,"GN 899 400028 Eashwar Niwas Chs,New R. P. Nagar,Matunga",19.0217224,72.837479
898,"GN 900 400028 G North,Dadar West,Dadar",19.023175,72.8434324
899,"GN 901 400028 Bmc Staff Quaters,Harishchandra Road,Dadar West,Dadar",19.0231102,72.8369976
900,"GN 902 400028 Dadar Police Quaters,Shaitan Chowky,Dadar West,Dadar",19.0152581,72.8354977
901,"GN 903 400028 Andul Ganni Chawl,Opp Dadar Police Station,Dadar Congested Area",19.0150142,72.8353781
902,"GN 904 400028 Devi Padmabai Chawl,Bal Govid Das Road,Opp. Ruparel Collage,Dadar West Congested Area",19.0278689,72.8453341
903,"GN 905 400028 Mauji Mansingh Khed Galli Patrashed,Shed Sayani Road,Dadar West Congested Area",19.0151625,72.8323332
904,"GN 906 400028 Ahmed Mansion,Kasinath Dhuru Road,Opp. Kirti Collage,Dadar",19.0213252,72.8310621
905,"GN 907 400028 Sagar Dharshan,Jambhekar Marg,Shivaji Park,Dadar",19.0248361,72.8344681
906,"GN 908 400028 Vijay Nagar Building,M C Jawale Marg,Opp. Dadar Station,Dadar",19.0179672,72.8412319
907,"GN 909 400028 Jyotibhai Rahi Vasi Ahmad Shekar Compound,,Dadar",19.0217224,72.837479
908,"GN 910 400028 Varkana Bhawan,B S Road,Kabutar Khana,Dadar",19.0190871,72.8402625
909,"GN 911 400028 Ramdas Bhawan,Rege Marg,Shivaji Park Dadar,Dadar",19.0244962,72.8390493
910,"GN 912 400028 Orbit Falcon,Senapatibapat Marg,Castle Hill,Dadar",19.0083949,72.831967
911,"GN 913 400028 Ramkunj Smruti,Ram Maruti Road,Dadar",,
912,"GN 914 400028 Ocean Tower Building,Kashinath Dhondu Road,Dadar",19.0217224,72.837479
913,"GN 915 400028 Indravadan Chs,Padmabai Thakkar Road,Shivaji Park,Dadar",19.025794,72.841401
914,"GN 916 400028 Ahmed Umar Building,Dr. Dsilva Road,Oppo. Railway Station,Dadar West",19.0185762,72.8419704
915,"GN 917 400028 Golmari Wadi,C K Bole Road,Near Siddhivinayak Mandir,Dadar Congested Area",19.0168159,72.8302491
916,"GN 918 400052 R N Gh Jay Hind Chs,,Mumbai",19.071708,72.8341038
917,"GS 919 400011 Shramik Ekta Sra,J. R. Boricha Marg,Mahalaxmi",18.9858031,72.827949
918,"GS 920 400011 Ganesh Nagar - C & D Committee,J. R. Boricha Marg,Mahalaxmi",18.9878657,72.827173
919,"GS 921 400011 Ganraj Apartment,J. R. Boricha Marg,Mahalaxmi",18.9878657,72.827173
920,"GS 922 400011 32 Tenements,Arthur Road,Chichpokli Congested Area",18.9821009,72.827772
921,"GS 923 400011 Satrasta Dhobhighat,Dr. E. Moses Road,Mahalaxmi Congested Area",18.982173,72.8250016
922,"GS 924 400011 Rangwala Building,Saatrasta,Mahalaxmi",18.9822306,72.8260577
923,"GS 925 400011 Joyeb House Front Of Dhobhighat,Saatrasta,Mahalaxmi",18.9822455,72.8255146
924,"GS 926 400011 Kanjwala Building,Saatrasta,Mahalaxmi",18.9807362,72.8265158
925,"GS 927 400011 Ambedkar Nagar,Sitaram Mill,Bmc School,Lower Parel Congested Area",18.9810451,72.8267579
926,"GS 928 400011 Zoeb House,Mahalaxmi Dhobighat,Saatrasta Congested Area",18.9807362,72.8265158
927,"GS 929 400011 Rangawala Building,Mahalaxmi Dhobighat,Saatrasta",18.9807362,72.8265158
928,"GS 930 400011 Chawl No 25,Shantinagar,Near Kasturaba Hospital,Saatrasta Congested Area",18.9840364,72.8298487
929,"GS 931 400011 Agakhan,Saatrasta,Mahalaxmi Dhobighat,Jacob Circle",18.9822455,72.8255146
930,"GS 932 400011 Megha Nagar,,Satrasta Congested Area",18.982173,72.8250016
931,"GS 933 400011 Racecourse,2Nd Enclave,Mahalaxmi Congested Area",18.9810451,72.8267579
932,"GS 934 400011 J Building,J R Boricha Marg,Near Arthur Road Jail,Saatrasta",18.9851452,72.8295767
933,"GS 935 400011 Laxmipooja C Wing,J R Boricha Marg,Near Arthur Road Jail,Saatrasta",18.9851452,72.8295767
934,"GS 936 400011 Shantinagar Chawl, Saatrasta,Near Kasturaba Hospital,Saatrasta,Saatrasta Congested Area",18.9840364,72.8298487
935,"GS 937 400013 Bdd Nm,N. M. Joshi Marg,Lower Parel Congested Area",18.9948653,72.8313547
936,"GS 938 400013 Mogul House,N. M. Joshi Marg,Lower Parel",18.9948653,72.8313547
937,"GS 939 400013 Irani Chawl,G. K. Marg,Lower Parel Congested Area",18.9953265,72.8300577
938,"GS 940 400013 Mahavir Chawl,G. K. Marg,Lower Parel Congested Area",,
939,"GS 941 400013 Anand Nagar, Ganpat Kokate Marg,G. K. Marg,Lower Parel Congested Area",18.9981729,72.8274691
940,"GS 942 400013 Ali Sheth Patra Chawl, G. K. Marg, Lower Parel,G. K. Marg,Lower Parel Congested Area",18.9953265,72.8300577
941,"GS 943 400013 Hendre Building,G. K. Marg,Lower Parel Congested Area",18.9806959,72.825846
942,"GS 944 400013 Kamgar Nagar 1 & 2,N. M. Joshi Marg,Lower Parel Congested Area",19.0087736,72.8306738
943,"GS 945 400013 Bhavani Mata Society,N. M. Joshi Marg,Lower Parel",19.0072721,72.8317491
944,"GS 946 400013 Maratha Chs,Currey Road,Lower Parel",18.9953706,72.832554
945,"GS 947 400013 Bajrang Krupa Building,N. M. Joshi Marg,Lower Parel",18.994165,72.831677
946,"GS 948 400013 Chimanlal Vitthaldas Chawl,Shankarrao Naram Path,Lower Parel Congested Area",19.0008406,72.8253313
947,"GS 949 400013 Bharat Mill Chs,G. K. Marg,Lower Parel",18.9953265,72.8300577
948,"GS 950 400013 Greenfield Society,Delile Road,Near Poddar Mill,Lower Parel",18.9897039,72.8313763
949,"GS 951 400013 Bdd 11,Nm Joshi Marg,Near Nm Joshi Police Station,Lower Parel Congested Area",18.991418,72.830998
950,"GS 952 400013 Rustum Building,G K Marg,Lower Parel Congested Area",18.9979103,72.8311198
951,"GS 953 400013 Nestle Guest House,N.M. Joshi Road,Beside Globe Mill School,Prabhadevi",19.009087,72.8307582
952,"GS 954 400013 Vinay Appartment,G.K Marg,Khada Hanuman Temple,Lower Parel",18.997941,72.8238728
953,"GS 955 400013 Orbit Tower,Elphinstone Road,Elphinstone Road,Elphinstone Congested Area",19.0083354,72.8320001
954,"GS 956 400013 Raheja Tower,S. N. Path,Lower Parel",19.0017924,72.824959
955,"GS 957 400013 Yogeshwar Bulding,N.M Joshi Marg,Curry Road",18.9929678,72.8318096
956,"GS 958 400013 Shivraj Bhavan,B.M. Rad,Curry Road",18.9950657,72.8333833
957,"GS 959 400013 Ambedkar Sadan,Sakharam Balaji,Curry Road",18.997809,72.834863
958,"GS 960 400013 Bapu Residency,B Cabin Road,Morivali Pada, Ambarnath,Elphinstone",19.2010964,73.1965559
959,"GS 961 400013 Sadguru Darshan,Fitwala Road,Elphinstone Congested Area",19.0077897,72.8339576
960,"GS 962 400013 Kazi Compound,Elphinstone Road,Elphinstone",18.9981729,72.8274691
961,"GS 963 400015 Wpc,Sirpochkhanwala,Worli",18.9960872,72.8528356
962,"GS 964 400018 Jijamata Nagar,Dr. E. Moses Road,Worli Congested Area",18.9929205,72.8203366
963,"GS 965 400018 Anand Nagar,Dr. E. Moses Road,Worli Congested Area",18.9901402,72.8212713
964,"GS 966 400018 Mata Ramabai Nagar,Dr. E. Moses Road,Worli Congested Area",18.9921513,72.8180919
965,"GS 967 400018 Suryadarshan Apt.,Dr. E. Moses Road,Worli",18.9901402,72.8212713
966,"GS 968 400018 Worli Bdd Chawl,G. M. Bhosale Marg,Worli Congested Area",19.0025994,72.8195359
967,"GS 969 400018 Bhaveshwar Chs Ltd.,Dr. Annie Besant Road,Worli",19.0006245,72.8164776
968,"GS 970 400018 V. P. Nagar,Dr. Annie Besant Road,Worli Congested Area",18.9884234,72.8134928
969,"GS 971 400018 Siddharth Nagar,Dr. Annie Besant Road,Worli Congested Area",18.9991198,72.8171333
970,"GS 972 400018 Pankaj Mansion C Wing,Dr. Annie Besant Road,Worli",19.000967,72.8156083
971,"GS 973 400018 Worli Police Camp,Sir Pochkhanwala Road,Worli",19.0080249,72.8159065
972,"GS 974 400018 Ashishwang Bldg.,Sir Pochkhanwala Road,Worli",19.0038674,72.8151507
973,"GS 975 400018 Shivaji Nagar,Sasmira Marg,Worli Congested Area",19.0127552,72.8203792
974,"GS 976 400018 Prem Nagar,B. G. Kher Marg,Worli Congested Area",18.996281,72.8155171
975,"GS 977 400018 Mariamma Nagar,Dr. Annie Besant Road,Worli Congested Area",18.9992156,72.8171977
976,"GS 978 400018 Govt Colony, Bldg. No. 5,Lala Lajpatrai Road,Worli",18.982038,72.814249
977,"GS 979 400018 Motilal Nehru Nagar Slum,Dr. Annie Besant Road,Worli Congested Area",18.9900593,72.8147973
978,"GS 980 400018 Markandeshwar Nagar, Worli,Dr. Annie Besant Road,Worli Congested Area",18.991582,72.8141433
979,"GS 981 400018 Nehru Nagar,Dr. Annie Besant Road,Worli Congested Area",18.9996816,72.8169349
980,"GS 982 400018 Atomica Bldg,Worli Hill Road,Worli",18.9952448,72.8144819
981,"GS 983 400018 Bhiwandiwala,G. M. Bhosale Marg,Worli",18.9989882,72.8177364
982,"GS 984 400018 Pathan Chawl,Dr. E. Moses Road,Worli Congested Area",18.9901402,72.8212713
983,"GS 985 400018 New Ambalal Chawl, Worli Naka,Dr. E. Moses Road,Worli Congested Area",18.9976991,72.8178981
984,"GS 986 400018 Bmc Chawl No. 9, Worli  18,Dr. E. Moses Road,Worli Congested Area",18.9933857,72.8201647
985,"GS 987 400018 Sainath Society,Dr. Annie Besant Road,Worli",18.9907287,72.8148605
986,"GS 988 400018 Parel Shivneri,L. R. Papan Marg,Worli",18.9951749,72.8222372
987,"GS 989 400018 Bharat Nagar,Dainik Shivner Marg,Nr Lady Ratan Complex,Worli Congested Area",18.9931325,72.8222459
988,"GS 990 400018 Mahakali Nagar,Sasmira Marg,Worli Congested Area",19.0127552,72.8203792
989,"GS 991 400018 Piramal House,R. G. Thadani,Worli",19.0060082,72.8168757
990,"GS 992 400018 Mahatma Phule Nagar,,Worli Congested Area",18.9985145,72.8173545
991,"GS 993 400018 Mahatma Phule Nagar,A G Khan Road,Near Masjid,Worli Congested Area",19.0049505,72.8135975
992,"GS 994 400018 Mahatma Phule Nagar,A G Khan Road,Kirana Store,Worli Congested Area",19.0049505,72.8135975
993,"GS 995 400018 Markandeshwar Nagar,A B Road,Sai Mandir,Worli Congested Area",18.9921773,72.8135385
994,"GS 996 400018 Krishna Raj Society,E Moses Road,Worli",18.9901402,72.8212713
995,"GS 997 400018 Pathan Chawl,E Moses Road,Worli Congested Area",18.9901402,72.8212713
996,"GS 998 400018 Wpc, Police Camp,Sirpochkhanwala,Worli",19.0077068,72.8157283
997,"GS 999 400018 Bhaveshwar,Ab Road,Opp Poddar,Worli",18.9898795,72.8152277
998,"GS 1000 400018 Bdd,Gm Bhosle Marg,Worli",19.0025994,72.8195359
999,"GS 1001 400018 Bdd,Gm Bhosle Marg,Worli",19.0025994,72.8195359
1000,"GS 1002 400018 Century,Pb Marg,Worli Congested Area",19.0062396,72.8216454
1001,"GS 1003 400018 Bmc Chouki,Pb Marg,Worli Congested Area",19.0062396,72.8216454
1002,"GS 1004 400018 Bdd,Gm Bhosle Marg,Worli",19.0025994,72.8195359
1003,"GS 1005 400018 Bdd,Gm Bhosle Marg,Worli Congested Area",19.0025994,72.8195359
1004,"GS 1006 400018 Merryland,Rg Thadani Marg,Worli",19.0015762,72.8132405
1005,"GS 1007 400018 Rustom Court,Ab Road,Worli",19.0018399,72.8152427
1006,"GS 1008 400018 Wpc, Police Camp,Sirpochkhanwala,Worli",19.0054116,72.8142511
1007,"GS 1009 400018 New Municipal Building,Rg Thadani Marg,Worli",19.0013055,72.8151854
1008,"GS 1010 400018 Wpc, Police Camp,Sirpochkhanwala,Worli",19.0077068,72.8157283
1009,"GS 1011 400018 Venus,Rg Thadani Marg,Worli",19.0006967,72.8131509
1010,"GS 1012 400018 Mahalaxmi Sra,Pb Marg,Worli",19.0072835,72.8236729
1011,"GS 1013 400018 Wpc, Police Camp,Sirpochkhanwala,Worli",18.9985145,72.8173545
1012,"GS 1014 400018 Darshana,Ab Road,Worli",18.9898795,72.8152277
1013,"GS 1015 400018 Bdd,Gm Bhosle Marg,Worli Congested Area",19.0025994,72.8195359
1014,"GS 1016 400018 Slum,Dr. A.B.Road,Sai Mandir,Worli Congested Area",22.9005923,75.9757127
1015,"GS 1017 400018 Slum,Dr. A.B.Road,Dr Gupta Clinic,Worli Congested Area",22.9005923,75.9757127
